[
  {
    "source": {
      "lat": 40.4166909,
      "lon": -3.7003454,
      "location": "Madrid, SPAIN"
    },
    "destination": {
      "lat": 51.455041,
      "lon": -0.9690884,
      "location": "Reading, UNITED KINGDOM"
    },
    "weight": 1
  },
  {
    "source": {
      "lat": 52.4828994,
      "lon": -1.8934623,
      "location": "Birmingham, UNITED KINGDOM"
    },
    "destination": {
      "lat": 51.455041,
      "lon": -0.9690884,
      "location": "Reading, UNITED KINGDOM"
    },
    "weight": 25
  },
  {
    "source": {
      "lat": 40.825873,
      "lon": -74.360771,
      "location": "East Hanover, USA, UNITED STATES"
    },
    "destination": {
      "lat": 1.2894365,
      "lon": 103.8499802,
      "location": "Singapore, SINGAPORE"
    },
    "weight": 12
  },
  {
    "source": {
      "lat": 40.825873,
      "lon": -74.360771,
      "location": "East Hanover, UNITED STATES"
    },
    "destination": {
      "lat": 33.6375983,
      "lon": 116.9769588,
      "location": "Suzhou, CHINA"
    },
    "weight": 15
  },
  {
    "source": {
      "lat": 40.825873,
      "lon": -74.360771,
      "location": "East Hanover, UNITED STATES"
    },
    "destination": {
      "lat": 40.825873,
      "lon": -74.360771,
      "location": "East Hanover, UNITED STATES"
    },
    "weight": 138
  },
  {
    "source": {
      "lat": 33.6375983,
      "lon": 116.9769588,
      "location": "Suzhou, CHINA"
    },
    "destination": {
      "lat": 40.825873,
      "lon": -74.360771,
      "location": "East Hanover, UNITED STATES"
    },
    "weight": 13
  },
  {
    "source": {
      "lat": 48.7308001,
      "lon": 2.1742453,
      "location": "Saclay, FRANCE"
    },
    "destination": {
      "lat": 40.825873,
      "lon": -74.360771,
      "location": "East Hanover, UNITED STATES"
    },
    "weight": 9
  },
  {
    "source": {
      "lat": 52.4828994,
      "lon": -1.8934623,
      "location": "Birmingham, UNITED KINGDOM"
    },
    "destination": {
      "lat": 40.825873,
      "lon": -74.360771,
      "location": "East Hanover, UNITED STATES"
    },
    "weight": 41
  },
  {
    "source": {
      "lat": 52.4828994,
      "lon": -1.8934623,
      "location": "Birmingham, UNITED KINGDOM"
    },
    "destination": {
      "lat": 52.4828994,
      "lon": -1.8934623,
      "location": "Birmingham, UNITED KINGDOM"
    },
    "weight": 405
  },
  {
    "source": {
      "lat": 1.2894365,
      "lon": 103.8499802,
      "location": "Singapore, SINGAPORE"
    },
    "destination": {
      "lat": 1.2894365,
      "lon": 103.8499802,
      "location": "Singapore, SINGAPORE"
    },
    "weight": 16
  },
  {
    "source": {
      "lat": -35.8683286,
      "lon": 146.241889,
      "location": "Ringwood, AUSTRALIA"
    },
    "destination": {
      "lat": 1.2894365,
      "lon": 103.8499802,
      "location": "Singapore, SINGAPORE"
    },
    "weight": 2
  },
  {
    "source": {
      "lat": -35.8683286,
      "lon": 146.241889,
      "location": "Ringwood, AUSTRALIA"
    },
    "destination": {
      "lat": 33.6375983,
      "lon": 116.9769588,
      "location": "Suzhou, CHINA"
    },
    "weight": 2
  },
  {
    "source": {
      "lat": 52.4828994,
      "lon": -1.8934623,
      "location": "Birmingham, UNITED KINGDOM"
    },
    "destination": {
      "lat": 43.6518927,
      "lon": -79.381713,
      "location": "Toronto, CANADA"
    },
    "weight": 2
  },
  {
    "source": {
      "lat": 43.6518927,
      "lon": -79.381713,
      "location": "Toronto, CANADA"
    },
    "destination": {
      "lat": 43.6518927,
      "lon": -79.381713,
      "location": "Toronto, CANADA"
    },
    "weight": 2
  },
  {
    "source": {
      "lat": -25.4283563,
      "lon": -49.2732515,
      "location": "Curitiba, BRAZIL"
    },
    "destination": {
      "lat": -25.4283563,
      "lon": -49.2732515,
      "location": "Curitiba, BRAZIL"
    },
    "weight": 38
  },
  {
    "source": {
      "lat": 40.825873,
      "lon": -74.360771,
      "location": "East Hanover, USA, UNITED STATES"
    },
    "destination": {
      "lat": -25.4283563,
      "lon": -49.2732515,
      "location": "Curitiba, BRAZIL"
    },
    "weight": 15
  },
  {
    "source": {
      "lat": -25.4283563,
      "lon": -49.2732515,
      "location": "Curitiba, BRAZIL"
    },
    "destination": {
      "lat": 19.1997061,
      "lon": 72.9646011,
      "location": "Thane, INDIA"
    },
    "weight": 5
  },
  {
    "source": {
      "lat": 52.4828994,
      "lon": -1.8934623,
      "location": "Birmingham, UNITED KINGDOM"
    },
    "destination": {
      "lat": 19.1997061,
      "lon": 72.9646011,
      "location": "Thane, INDIA"
    },
    "weight": 91
  },
  {
    "source": {
      "lat": -7.6425806,
      "lon": 112.9104354,
      "location": "Pasuruan - Indonesia, INDONESIA"
    },
    "destination": {
      "lat": -7.6425806,
      "lon": 112.9104354,
      "location": "Pasuruan - Indonesia, INDONESIA"
    },
    "weight": 1
  },
  {
    "source": {
      "lat": -37.8323792,
      "lon": 144.9604333,
      "location": "South Melbourne, AUSTRALIA"
    },
    "destination": {
      "lat": 52.4828994,
      "lon": -1.8934623,
      "location": "Birmingham, UNITED KINGDOM"
    },
    "weight": 3
  },
  {
    "source": {
      "lat": 51.0487909,
      "lon": 16.9655796,
      "location": "Bielany Wroclawskie, Kobierzyce, POLAND"
    },
    "destination": {
      "lat": 33.6375983,
      "lon": 116.9769588,
      "location": "Suzhou, CHINA"
    },
    "weight": 2
  },
  {
    "source": {
      "lat": 36.19585,
      "lon": -115.114574,
      "location": "N/A, UNITED STATES"
    },
    "destination": {
      "lat": -37.8323792,
      "lon": 144.9604333,
      "location": "South Melbourne, AUSTRALIA"
    },
    "weight": 1
  },
  {
    "source": {
      "lat": 52.4828994,
      "lon": -1.8934623,
      "location": "Birmingham, UNITED KINGDOM"
    },
    "destination": {
      "lat": 1.2894365,
      "lon": 103.8499802,
      "location": "Singapore, SINGAPORE"
    },
    "weight": 15
  },
  {
    "source": {
      "lat": -7.6425806,
      "lon": 112.9104354,
      "location": "Pasuruan - Indonesia, INDONESIA"
    },
    "destination": {
      "lat": 1.2894365,
      "lon": 103.8499802,
      "location": "Singapore, SINGAPORE"
    },
    "weight": 1
  },
  {
    "source": {
      "lat": 33.6375983,
      "lon": 116.9769588,
      "location": "Suzhou, CHINA"
    },
    "destination": {
      "lat": 1.2894365,
      "lon": 103.8499802,
      "location": "Singapore, SINGAPORE"
    },
    "weight": 3
  },
  {
    "source": {
      "lat": 48.7308001,
      "lon": 2.1742453,
      "location": "Saclay, FRANCE"
    },
    "destination": {
      "lat": 1.2894365,
      "lon": 103.8499802,
      "location": "Singapore, SINGAPORE"
    },
    "weight": 2
  },
  {
    "source": {
      "lat": 52.4828994,
      "lon": -1.8934623,
      "location": "Birmingham, UNITED KINGDOM"
    },
    "destination": {
      "lat": -35.8683286,
      "lon": 146.241889,
      "location": "Ringwood, AUSTRALIA"
    },
    "weight": 13
  },
  {
    "source": {
      "lat": 33.6375983,
      "lon": 116.9769588,
      "location": "Suzhou, CHINA"
    },
    "destination": {
      "lat": -35.8683286,
      "lon": 146.241889,
      "location": "Ringwood, AUSTRALIA"
    },
    "weight": 2
  },
  {
    "source": {
      "lat": 38.8920621,
      "lon": -77.0199124,
      "location": "Remote Worker - Washington, USA, UNITED STATES"
    },
    "destination": {
      "lat": -35.8683286,
      "lon": 146.241889,
      "location": "Ringwood, AUSTRALIA"
    },
    "weight": 1
  },
  {
    "source": {
      "lat": 52.4828994,
      "lon": -1.8934623,
      "location": "Birmingham, UNITED KINGDOM"
    },
    "destination": {
      "lat": -7.6425806,
      "lon": 112.9104354,
      "location": "Pasuruan - Indonesia, INDONESIA"
    },
    "weight": 6
  },
  {
    "source": {
      "lat": 1.2894365,
      "lon": 103.8499802,
      "location": "Singapore, SINGAPORE"
    },
    "destination": {
      "lat": 19.5528083,
      "lon": -99.2018818,
      "location": "Tlalnepantla de Baz, MEXICO"
    },
    "weight": 3
  },
  {
    "source": {
      "lat": 36.19585,
      "lon": -115.114574,
      "location": "N/A, UNITED STATES"
    },
    "destination": {
      "lat": 52.4828994,
      "lon": -1.8934623,
      "location": "Birmingham, UNITED KINGDOM"
    },
    "weight": 6
  },
  {
    "source": {
      "lat": 52.4828994,
      "lon": -1.8934623,
      "location": "Birmingham, UNITED KINGDOM"
    },
    "destination": {
      "lat": 36.19585,
      "lon": -115.114574,
      "location": "N/A, UNITED STATES"
    },
    "weight": 3
  },
  {
    "source": {
      "lat": 36.19585,
      "lon": -115.114574,
      "location": "N/A, UNITED STATES"
    },
    "destination": {
      "lat": 36.19585,
      "lon": -115.114574,
      "location": "N/A, UNITED STATES"
    },
    "weight": 10
  },
  {
    "source": {
      "lat": 1.2894365,
      "lon": 103.8499802,
      "location": "Singapore, SINGAPORE"
    },
    "destination": {
      "lat": 51.0487909,
      "lon": 16.9655796,
      "location": "Bielany Wroclawskie, Kobierzyce, POLAND"
    },
    "weight": 3
  },
  {
    "source": {
      "lat": 33.6375983,
      "lon": 116.9769588,
      "location": "Suzhou, CHINA"
    },
    "destination": {
      "lat": 52.4828994,
      "lon": -1.8934623,
      "location": "Birmingham, UNITED KINGDOM"
    },
    "weight": 4
  },
  {
    "source": {
      "lat": 59.5195966,
      "lon": 17.9092828,
      "location": "Upplands Vaesby, Sweden, SWEDEN"
    },
    "destination": {
      "lat": 59.5195966,
      "lon": 17.9092828,
      "location": "Upplands Vaesby, Sweden, SWEDEN"
    },
    "weight": 3
  },
  {
    "source": {
      "lat": 52.4828994,
      "lon": -1.8934623,
      "location": "Birmingham, UNITED KINGDOM"
    },
    "destination": {
      "lat": -25.4283563,
      "lon": -49.2732515,
      "location": "Curitiba, BRAZIL"
    },
    "weight": 21
  },
  {
    "source": {
      "lat": 36.19585,
      "lon": -115.114574,
      "location": "N/A, UNITED STATES"
    },
    "destination": {
      "lat": 1.2894365,
      "lon": 103.8499802,
      "location": "Singapore, SINGAPORE"
    },
    "weight": 1
  },
  {
    "source": {
      "lat": -37.8323792,
      "lon": 144.9604333,
      "location": "South Melbourne, AUSTRALIA"
    },
    "destination": {
      "lat": -37.8323792,
      "lon": 144.9604333,
      "location": "South Melbourne, AUSTRALIA"
    },
    "weight": 1
  },
  {
    "source": {
      "lat": -35.8683286,
      "lon": 146.241889,
      "location": "Ringwood, AUSTRALIA"
    },
    "destination": {
      "lat": -37.8323792,
      "lon": 144.9604333,
      "location": "South Melbourne, AUSTRALIA"
    },
    "weight": 1
  },
  {
    "source": {
      "lat": 19.5528083,
      "lon": -99.2018818,
      "location": "Tlalnepantla de Baz, MEXICO"
    },
    "destination": {
      "lat": 1.2894365,
      "lon": 103.8499802,
      "location": "Singapore, SINGAPORE"
    },
    "weight": 3
  },
  {
    "source": {
      "lat": 51.455041,
      "lon": -0.9690884,
      "location": "Reading, UNITED KINGDOM"
    },
    "destination": {
      "lat": 40.825873,
      "lon": -74.360771,
      "location": "East Hanover, UNITED STATES"
    },
    "weight": 19
  },
  {
    "source": {
      "lat": 1.2894365,
      "lon": 103.8499802,
      "location": "Singapore, SINGAPORE"
    },
    "destination": {
      "lat": -25.4283563,
      "lon": -49.2732515,
      "location": "Curitiba, BRAZIL"
    },
    "weight": 7
  },
  {
    "source": {
      "lat": 40.825873,
      "lon": -74.360771,
      "location": "East Hanover, UNITED STATES"
    },
    "destination": {
      "lat": 52.4828994,
      "lon": -1.8934623,
      "location": "Birmingham, UNITED KINGDOM"
    },
    "weight": 25
  },
  {
    "source": {
      "lat": -25.4283563,
      "lon": -49.2732515,
      "location": "Curitiba, BRAZIL"
    },
    "destination": {
      "lat": 52.4828994,
      "lon": -1.8934623,
      "location": "Birmingham, UNITED KINGDOM"
    },
    "weight": 18
  },
  {
    "source": {
      "lat": -35.8683286,
      "lon": 146.241889,
      "location": "Ringwood, AUSTRALIA"
    },
    "destination": {
      "lat": 19.1997061,
      "lon": 72.9646011,
      "location": "Thane, INDIA"
    },
    "weight": 2
  },
  {
    "source": {
      "lat": 51.455041,
      "lon": -0.9690884,
      "location": "Reading, UNITED KINGDOM"
    },
    "destination": {
      "lat": 51.455041,
      "lon": -0.9690884,
      "location": "Reading, UNITED KINGDOM"
    },
    "weight": 40
  },
  {
    "source": {
      "lat": -7.6425806,
      "lon": 112.9104354,
      "location": "Pasuruan - Indonesia, INDONESIA"
    },
    "destination": {
      "lat": 51.455041,
      "lon": -0.9690884,
      "location": "Reading, UNITED KINGDOM"
    },
    "weight": 1
  },
  {
    "source": {
      "lat": 40.4166909,
      "lon": -3.7003454,
      "location": "Madrid, SPAIN"
    },
    "destination": {
      "lat": 52.4828994,
      "lon": -1.8934623,
      "location": "Birmingham, UNITED KINGDOM"
    },
    "weight": 7
  },
  {
    "source": {
      "lat": 51.455041,
      "lon": -0.9690884,
      "location": "Reading, UNITED KINGDOM"
    },
    "destination": {
      "lat": 52.4828994,
      "lon": -1.8934623,
      "location": "Birmingham, UNITED KINGDOM"
    },
    "weight": 20
  },
  {
    "source": {
      "lat": 48.1391264,
      "lon": 11.5802189,
      "location": "Munich, undefined"
    },
    "destination": {
      "lat": -35.8683286,
      "lon": 146.241889,
      "location": "Ringwood, AUSTRALIA"
    },
    "weight": 2
  },
  {
    "source": {
      "lat": 48.1391264,
      "lon": 11.5802189,
      "location": "Munich, undefined"
    },
    "destination": {
      "lat": 48.1391264,
      "lon": 11.5802189,
      "location": "Munich, undefined"
    },
    "weight": 3
  },
  {
    "source": {
      "lat": 18.9690472,
      "lon": 72.8211807,
      "location": "Mumbai, INDIA"
    },
    "destination": {
      "lat": 52.4828994,
      "lon": -1.8934623,
      "location": "Birmingham, UNITED KINGDOM"
    },
    "weight": 1
  },
  {
    "source": {
      "lat": 48.7308001,
      "lon": 2.1742453,
      "location": "Saclay, FRANCE"
    },
    "destination": {
      "lat": 33.6375983,
      "lon": 116.9769588,
      "location": "Suzhou, CHINA"
    },
    "weight": 6
  },
  {
    "source": {
      "lat": 48.7308001,
      "lon": 2.1742453,
      "location": "Saclay, FRANCE"
    },
    "destination": {
      "lat": -35.8683286,
      "lon": 146.241889,
      "location": "Ringwood, AUSTRALIA"
    },
    "weight": 1
  },
  {
    "source": {
      "lat": 36.19585,
      "lon": -115.114574,
      "location": "N/A, UNITED STATES"
    },
    "destination": {
      "lat": 51.455041,
      "lon": -0.9690884,
      "location": "Reading, UNITED KINGDOM"
    },
    "weight": 5
  },
  {
    "source": {
      "lat": -23.5486657,
      "lon": -46.6382522,
      "location": "São Paulo , BRAZIL"
    },
    "destination": {
      "lat": -25.4283563,
      "lon": -49.2732515,
      "location": "Curitiba, BRAZIL"
    },
    "weight": 5
  },
  {
    "source": {
      "lat": 13.232703,
      "lon": 80.2795511,
      "location": "Thane Technical Centre, INDIA"
    },
    "destination": {
      "lat": 51.455041,
      "lon": -0.9690884,
      "location": "Reading, UNITED KINGDOM"
    },
    "weight": 1
  },
  {
    "source": {
      "lat": 48.1391264,
      "lon": 11.5802189,
      "location": "Munich, undefined"
    },
    "destination": {
      "lat": 42.758987,
      "lon": -82.483426,
      "location": "East Suzhou, China, CHINA"
    },
    "weight": 2
  },
  {
    "source": {
      "lat": 19.1997061,
      "lon": 72.9646011,
      "location": "Thane, INDIA"
    },
    "destination": {
      "lat": 42.758987,
      "lon": -82.483426,
      "location": "East Suzhou, China, CHINA"
    },
    "weight": 1
  },
  {
    "source": {
      "lat": 42.4612894,
      "lon": -5.884193,
      "location": "Hospital De Orbigo, Leon, SPAIN"
    },
    "destination": {
      "lat": 42.758987,
      "lon": -82.483426,
      "location": "East Suzhou, China, CHINA"
    },
    "weight": 1
  },
  {
    "source": {
      "lat": 42.4612894,
      "lon": -5.884193,
      "location": "Hospital De Orbigo, Leon, SPAIN"
    },
    "destination": {
      "lat": 48.1391264,
      "lon": 11.5802189,
      "location": "Munich, undefined"
    },
    "weight": 2
  },
  {
    "source": {
      "lat": 47.6116949,
      "lon": 7.6589039,
      "location": "Loerrach, GERMANY"
    },
    "destination": {
      "lat": 52.4828994,
      "lon": -1.8934623,
      "location": "Birmingham, UNITED KINGDOM"
    },
    "weight": 4
  },
  {
    "source": {
      "lat": 42.4612894,
      "lon": -5.884193,
      "location": "Hospital De Orbigo, Leon, SPAIN"
    },
    "destination": {
      "lat": -35.8683286,
      "lon": 146.241889,
      "location": "Ringwood, AUSTRALIA"
    },
    "weight": 1
  },
  {
    "source": {
      "lat": 48.060101,
      "lon": 11.622189,
      "location": "Unterhaching, GERMANY"
    },
    "destination": {
      "lat": 40.825873,
      "lon": -74.360771,
      "location": "East Hanover, UNITED STATES"
    },
    "weight": 2
  },
  {
    "source": {
      "lat": 42.4612894,
      "lon": -5.884193,
      "location": "Hospital De Orbigo, Leon, SPAIN"
    },
    "destination": {
      "lat": -37.8323792,
      "lon": 144.9604333,
      "location": "South Melbourne, AUSTRALIA"
    },
    "weight": 1
  },
  {
    "source": {
      "lat": 48.1391264,
      "lon": 11.5802189,
      "location": "Munich, undefined"
    },
    "destination": {
      "lat": -37.8323792,
      "lon": 144.9604333,
      "location": "South Melbourne, AUSTRALIA"
    },
    "weight": 2
  },
  {
    "source": {
      "lat": -26.201452,
      "lon": 28.045488,
      "location": "Johannesburg, SOUTH AFRICA"
    },
    "destination": {
      "lat": -23.5486657,
      "lon": -46.6382522,
      "location": "São Paulo , BRAZIL"
    },
    "weight": 2
  },
  {
    "source": {
      "lat": -23.5486657,
      "lon": -46.6382522,
      "location": "São Paulo , BRAZIL"
    },
    "destination": {
      "lat": 19.1997061,
      "lon": 72.9646011,
      "location": "Thane, INDIA"
    },
    "weight": 5
  },
  {
    "source": {
      "lat": -26.201452,
      "lon": 28.045488,
      "location": "Johannesburg, SOUTH AFRICA"
    },
    "destination": {
      "lat": 40.825873,
      "lon": -74.360771,
      "location": "East Hanover, USA, UNITED STATES"
    },
    "weight": 8
  },
  {
    "source": {
      "lat": 36.19585,
      "lon": -115.114574,
      "location": "N/A, UNITED STATES"
    },
    "destination": {
      "lat": -7.6425806,
      "lon": 112.9104354,
      "location": "Pasuruan, INDONESIA"
    },
    "weight": 3
  },
  {
    "source": {
      "lat": -26.201452,
      "lon": 28.045488,
      "location": "Johannesburg, SOUTH AFRICA"
    },
    "destination": {
      "lat": 52.4828994,
      "lon": -1.8934623,
      "location": "Birmingham, UNITED KINGDOM"
    },
    "weight": 10
  },
  {
    "source": {
      "lat": -25.4283563,
      "lon": -49.2732515,
      "location": "Curitiba, BRAZIL"
    },
    "destination": {
      "lat": -23.5486657,
      "lon": -46.6382522,
      "location": "São Paulo , BRAZIL"
    },
    "weight": 6
  },
  {
    "source": {
      "lat": -25.4283563,
      "lon": -49.2732515,
      "location": "Curitiba, BRAZIL"
    },
    "destination": {
      "lat": 40.825873,
      "lon": -74.360771,
      "location": "East Hanover, UNITED STATES"
    },
    "weight": 17
  },
  {
    "source": {
      "lat": 52.4828994,
      "lon": -1.8934623,
      "location": "Birmingham, UNITED KINGDOM"
    },
    "destination": {
      "lat": 51.0487909,
      "lon": 16.9655796,
      "location": "Bielany Wroclawskie, Kobierzyce, POLAND"
    },
    "weight": 26
  },
  {
    "source": {
      "lat": 51.0487909,
      "lon": 16.9655796,
      "location": "Bielany Wroclawskie, Kobierzyce, POLAND"
    },
    "destination": {
      "lat": 1.2894365,
      "lon": 103.8499802,
      "location": "Singapore, SINGAPORE"
    },
    "weight": 1
  },
  {
    "source": {
      "lat": 51.0487909,
      "lon": 16.9655796,
      "location": "Bielany Wroclawskie, Kobierzyce, POLAND"
    },
    "destination": {
      "lat": 36.19585,
      "lon": -115.114574,
      "location": "N/A, UNITED STATES"
    },
    "weight": 1
  },
  {
    "source": {
      "lat": 52.4828994,
      "lon": -1.8934623,
      "location": "Birmingham, UNITED KINGDOM"
    },
    "destination": {
      "lat": 7.5397775,
      "lon": 123.1947979,
      "location": "N/A, PHILIPPINES"
    },
    "weight": 1
  },
  {
    "source": {
      "lat": 40.4166909,
      "lon": -3.7003454,
      "location": "Madrid, SPAIN"
    },
    "destination": {
      "lat": 1.2894365,
      "lon": 103.8499802,
      "location": "Singapore, SINGAPORE"
    },
    "weight": 1
  },
  {
    "source": {
      "lat": 51.455041,
      "lon": -0.9690884,
      "location": "Reading, UNITED KINGDOM"
    },
    "destination": {
      "lat": 52.4304509,
      "lon": -1.9342949,
      "location": "Bournville, UK, UNITED KINGDOM"
    },
    "weight": 2
  },
  {
    "source": {
      "lat": 51.455041,
      "lon": -0.9690884,
      "location": "Reading, UNITED KINGDOM"
    },
    "destination": {
      "lat": 41.883229,
      "lon": -87.632398,
      "location": "Chicago, UNITED STATES"
    },
    "weight": 1
  },
  {
    "source": {
      "lat": -26.201452,
      "lon": 28.045488,
      "location": "Johannesburg, SOUTH AFRICA"
    },
    "destination": {
      "lat": 41.883229,
      "lon": -87.632398,
      "location": "Chicago, UNITED STATES"
    },
    "weight": 1
  },
  {
    "source": {
      "lat": 52.4828994,
      "lon": -1.8934623,
      "location": "Birmingham, UNITED KINGDOM"
    },
    "destination": {
      "lat": 51.1105483,
      "lon": 17.0255582,
      "location": "Wroclaw, Poland, POLAND"
    },
    "weight": 3
  },
  {
    "source": {
      "lat": 52.4304509,
      "lon": -1.9342949,
      "location": "Bournville, UK, UNITED KINGDOM"
    },
    "destination": {
      "lat": 52.4828994,
      "lon": -1.8934623,
      "location": "Birmingham, UNITED KINGDOM"
    },
    "weight": 1
  },
  {
    "source": {
      "lat": 51.455041,
      "lon": -0.9690884,
      "location": "Reading, UNITED KINGDOM"
    },
    "destination": {
      "lat": 19.1997061,
      "lon": 72.9646011,
      "location": "Thane, INDIA"
    },
    "weight": 15
  },
  {
    "source": {
      "lat": -26.201452,
      "lon": 28.045488,
      "location": "Johannesburg, SOUTH AFRICA"
    },
    "destination": {
      "lat": 51.455041,
      "lon": -0.9690884,
      "location": "Reading, UNITED KINGDOM"
    },
    "weight": 6
  },
  {
    "source": {
      "lat": 40.825873,
      "lon": -74.360771,
      "location": "East Hanover, UNITED STATES"
    },
    "destination": {
      "lat": 51.455041,
      "lon": -0.9690884,
      "location": "Reading, UNITED KINGDOM"
    },
    "weight": 5
  },
  {
    "source": {
      "lat": 48.7308001,
      "lon": 2.1742453,
      "location": "Saclay, FRANCE"
    },
    "destination": {
      "lat": 52.4828994,
      "lon": -1.8934623,
      "location": "Birmingham, UNITED KINGDOM"
    },
    "weight": 10
  },
  {
    "source": {
      "lat": 19.1997061,
      "lon": 72.9646011,
      "location": "Thane, INDIA"
    },
    "destination": {
      "lat": -23.5486657,
      "lon": -46.6382522,
      "location": "São Paulo , BRAZIL"
    },
    "weight": 1
  },
  {
    "source": {
      "lat": 51.0487909,
      "lon": 16.9655796,
      "location": "Bielany Wroclawskie, Kobierzyce, POLAND"
    },
    "destination": {
      "lat": 41.883229,
      "lon": -87.632398,
      "location": "Chicago, UNITED STATES"
    },
    "weight": 1
  },
  {
    "source": {
      "lat": 40.825873,
      "lon": -74.360771,
      "location": "East Hanover, UNITED STATES"
    },
    "destination": {
      "lat": 41.883229,
      "lon": -87.632398,
      "location": "Chicago, UNITED STATES"
    },
    "weight": 3
  },
  {
    "source": {
      "lat": 36.19585,
      "lon": -115.114574,
      "location": "N/A, UNITED STATES"
    },
    "destination": {
      "lat": 40.825873,
      "lon": -74.360771,
      "location": "East Hanover, UNITED STATES"
    },
    "weight": 94
  },
  {
    "source": {
      "lat": 19.1997061,
      "lon": 72.9646011,
      "location": "Thane, INDIA"
    },
    "destination": {
      "lat": 19.1997061,
      "lon": 72.9646011,
      "location": "Thane, INDIA"
    },
    "weight": 37
  },
  {
    "source": {
      "lat": 42.4612894,
      "lon": -5.884193,
      "location": "Hospital De Orbigo, Leon, SPAIN"
    },
    "destination": {
      "lat": 52.4828994,
      "lon": -1.8934623,
      "location": "Birmingham, UNITED KINGDOM"
    },
    "weight": 1
  },
  {
    "source": {
      "lat": 51.455041,
      "lon": -0.9690884,
      "location": "Reading, UNITED KINGDOM"
    },
    "destination": {
      "lat": 1.2894365,
      "lon": 103.8499802,
      "location": "Singapore, SINGAPORE"
    },
    "weight": 6
  },
  {
    "source": {
      "lat": 19.1997061,
      "lon": 72.9646011,
      "location": "Thane, INDIA"
    },
    "destination": {
      "lat": 52.4828994,
      "lon": -1.8934623,
      "location": "Birmingham, UNITED KINGDOM"
    },
    "weight": 6
  },
  {
    "source": {
      "lat": 40.8248947,
      "lon": -74.4180338,
      "location": "Whippany, UNITED STATES"
    },
    "destination": {
      "lat": -45.5772823,
      "lon": -71.0327847,
      "location": "Ricardo Rojas, ARGENTINA"
    },
    "weight": 1
  },
  {
    "source": {
      "lat": 40.825873,
      "lon": -74.360771,
      "location": "East Hanover, UNITED STATES"
    },
    "destination": {
      "lat": -45.5772823,
      "lon": -71.0327847,
      "location": "Ricardo Rojas, ARGENTINA"
    },
    "weight": 3
  },
  {
    "source": {
      "lat": 40.825873,
      "lon": -74.360771,
      "location": "East Hanover, UNITED STATES"
    },
    "destination": {
      "lat": -35.8683286,
      "lon": 146.241889,
      "location": "Ringwood, AUSTRALIA"
    },
    "weight": 3
  },
  {
    "source": {
      "lat": 10.0762785,
      "lon": -69.3129441,
      "location": "Barquisimeto, VENEZUELA, BOLIVARIAN REPUBLIC OF"
    },
    "destination": {
      "lat": -25.4283563,
      "lon": -49.2732515,
      "location": "Curitiba, BRAZIL"
    },
    "weight": 1
  },
  {
    "source": {
      "lat": 53.074981,
      "lon": 8.807081,
      "location": "Bremen, GERMANY"
    },
    "destination": {
      "lat": 19.1997061,
      "lon": 72.9646011,
      "location": "Thane, INDIA"
    },
    "weight": 1
  },
  {
    "source": {
      "lat": 51.455041,
      "lon": -0.9690884,
      "location": "Reading, UNITED KINGDOM"
    },
    "destination": {
      "lat": 51.4109723,
      "lon": -0.8349256,
      "location": "Wokingham, UNITED KINGDOM"
    },
    "weight": 1
  },
  {
    "source": {
      "lat": 51.455041,
      "lon": -0.9690884,
      "location": "Reading, UNITED KINGDOM"
    },
    "destination": {
      "lat": -7.6425806,
      "lon": 112.9104354,
      "location": "Pasuruan, INDONESIA"
    },
    "weight": 6
  },
  {
    "source": {
      "lat": 36.19585,
      "lon": -115.114574,
      "location": "N/A, UNITED STATES"
    },
    "destination": {
      "lat": -25.4283563,
      "lon": -49.2732515,
      "location": "Curitiba, BRAZIL"
    },
    "weight": 4
  },
  {
    "source": {
      "lat": 1.2894365,
      "lon": 103.8499802,
      "location": "Singapore, SINGAPORE"
    },
    "destination": {
      "lat": 52.4828994,
      "lon": -1.8934623,
      "location": "Birmingham, UNITED KINGDOM"
    },
    "weight": 3
  },
  {
    "source": {
      "lat": 51.455041,
      "lon": -0.9690884,
      "location": "Reading, UNITED KINGDOM"
    },
    "destination": {
      "lat": -25.4283563,
      "lon": -49.2732515,
      "location": "Curitiba, BRAZIL"
    },
    "weight": 14
  },
  {
    "source": {
      "lat": 36.19585,
      "lon": -115.114574,
      "location": "N/A, UNITED STATES"
    },
    "destination": {
      "lat": 53.074981,
      "lon": 8.807081,
      "location": "Bremen, GERMANY"
    },
    "weight": 2
  },
  {
    "source": {
      "lat": 40.825873,
      "lon": -74.360771,
      "location": "East Hanover, UNITED STATES"
    },
    "destination": {
      "lat": 53.074981,
      "lon": 8.807081,
      "location": "Bremen, GERMANY"
    },
    "weight": 3
  },
  {
    "source": {
      "lat": 41.883229,
      "lon": -87.632398,
      "location": "Chicago, UNITED STATES"
    },
    "destination": {
      "lat": 40.825873,
      "lon": -74.360771,
      "location": "East Hanover, USA, UNITED STATES"
    },
    "weight": 9
  },
  {
    "source": {
      "lat": 1.2894365,
      "lon": 103.8499802,
      "location": "Singapore, SINGAPORE"
    },
    "destination": {
      "lat": 14.4778938,
      "lon": 121.028933,
      "location": "Paranaque City, PHILIPPINES"
    },
    "weight": 2
  },
  {
    "source": {
      "lat": 1.2894365,
      "lon": 103.8499802,
      "location": "Singapore, SINGAPORE"
    },
    "destination": {
      "lat": 40.825873,
      "lon": -74.360771,
      "location": "East Hanover, UNITED STATES"
    },
    "weight": 20
  },
  {
    "source": {
      "lat": 51.455041,
      "lon": -0.9690884,
      "location": "Reading, UNITED KINGDOM"
    },
    "destination": {
      "lat": 48.060101,
      "lon": 11.622189,
      "location": "Unterhaching, GERMANY"
    },
    "weight": 3
  },
  {
    "source": {
      "lat": 42.4612894,
      "lon": -5.884193,
      "location": "Hospital De Orbigo, Leon, SPAIN"
    },
    "destination": {
      "lat": 40.825873,
      "lon": -74.360771,
      "location": "East Hanover, UNITED STATES"
    },
    "weight": 1
  },
  {
    "source": {
      "lat": 40.825873,
      "lon": -74.360771,
      "location": "East Hanover, UNITED STATES"
    },
    "destination": {
      "lat": 14.4778938,
      "lon": 121.028933,
      "location": "Paranaque City, PHILIPPINES"
    },
    "weight": 1
  },
  {
    "source": {
      "lat": 51.0487909,
      "lon": 16.9655796,
      "location": "Bielany Wroclawskie, Kobierzyce, POLAND"
    },
    "destination": {
      "lat": 52.4828994,
      "lon": -1.8934623,
      "location": "Birmingham, UNITED KINGDOM"
    },
    "weight": 9
  },
  {
    "source": {
      "lat": 40.825873,
      "lon": -74.360771,
      "location": "East Hanover, USA, UNITED STATES"
    },
    "destination": {
      "lat": -37.814262,
      "lon": 145.227386,
      "location": "Ringwood - Melbourne, Australia, AUSTRALIA"
    },
    "weight": 2
  },
  {
    "source": {
      "lat": 1.2894365,
      "lon": 103.8499802,
      "location": "Singapore, SINGAPORE"
    },
    "destination": {
      "lat": 33.6375983,
      "lon": 116.9769588,
      "location": "Suzhou, CHINA"
    },
    "weight": 2
  },
  {
    "source": {
      "lat": 33.6375983,
      "lon": 116.9769588,
      "location": "Suzhou, CHINA"
    },
    "destination": {
      "lat": 33.6375983,
      "lon": 116.9769588,
      "location": "Suzhou, CHINA"
    },
    "weight": 27
  },
  {
    "source": {
      "lat": 52.4828994,
      "lon": -1.8934623,
      "location": "Birmingham, UNITED KINGDOM"
    },
    "destination": {
      "lat": 33.6375983,
      "lon": 116.9769588,
      "location": "Suzhou, CHINA"
    },
    "weight": 6
  },
  {
    "source": {
      "lat": 40.4166909,
      "lon": -3.7003454,
      "location": "Madrid, SPAIN"
    },
    "destination": {
      "lat": 19.1997061,
      "lon": 72.9646011,
      "location": "Thane, India, INDIA"
    },
    "weight": 3
  },
  {
    "source": {
      "lat": -26.201452,
      "lon": 28.045488,
      "location": "Johannesburg, SOUTH AFRICA"
    },
    "destination": {
      "lat": -45.5772823,
      "lon": -71.0327847,
      "location": "Ricardo Rojas, ARGENTINA"
    },
    "weight": 1
  },
  {
    "source": {
      "lat": -26.201452,
      "lon": 28.045488,
      "location": "Johannesburg, SOUTH AFRICA"
    },
    "destination": {
      "lat": 19.1997061,
      "lon": 72.9646011,
      "location": "Thane, India, INDIA"
    },
    "weight": 5
  },
  {
    "source": {
      "lat": 40.4166909,
      "lon": -3.7003454,
      "location": "Madrid, SPAIN"
    },
    "destination": {
      "lat": -35.8683286,
      "lon": 146.241889,
      "location": "Ringwood, AUSTRALIA"
    },
    "weight": 1
  },
  {
    "source": {
      "lat": 51.0487909,
      "lon": 16.9655796,
      "location": "Bielany Wroclawskie, Kobierzyce, POLAND"
    },
    "destination": {
      "lat": 19.1997061,
      "lon": 72.9646011,
      "location": "Thane, INDIA"
    },
    "weight": 4
  },
  {
    "source": {
      "lat": 40.825873,
      "lon": -74.360771,
      "location": "East Hanover, UNITED STATES"
    },
    "destination": {
      "lat": 51.1105483,
      "lon": 17.0255582,
      "location": "Wroclaw, POLAND"
    },
    "weight": 2
  },
  {
    "source": {
      "lat": 48.7308001,
      "lon": 2.1742453,
      "location": "Saclay, FRANCE"
    },
    "destination": {
      "lat": -45.5772823,
      "lon": -71.0327847,
      "location": "Ricardo Rojas, ARGENTINA"
    },
    "weight": 1
  },
  {
    "source": {
      "lat": 36.19585,
      "lon": -115.114574,
      "location": "N/A, UNITED STATES"
    },
    "destination": {
      "lat": 51.1105483,
      "lon": 17.0255582,
      "location": "Wroclaw, POLAND"
    },
    "weight": 1
  },
  {
    "source": {
      "lat": 52.4828994,
      "lon": -1.8934623,
      "location": "Birmingham, UNITED KINGDOM"
    },
    "destination": {
      "lat": 53.074981,
      "lon": 8.807081,
      "location": "Bremen, GERMANY"
    },
    "weight": 4
  },
  {
    "source": {
      "lat": 52.4828994,
      "lon": -1.8934623,
      "location": "Birmingham, UNITED KINGDOM"
    },
    "destination": {
      "lat": 48.1391264,
      "lon": 11.5802189,
      "location": "Munich, Germany, GERMANY"
    },
    "weight": 1
  },
  {
    "source": {
      "lat": -26.201452,
      "lon": 28.045488,
      "location": "Johannesburg, SOUTH AFRICA"
    },
    "destination": {
      "lat": 1.2894365,
      "lon": 103.8499802,
      "location": "Singapore, SINGAPORE"
    },
    "weight": 9
  },
  {
    "source": {
      "lat": 40.205771,
      "lon": -74.67087,
      "location": "NJ, UNITED STATES"
    },
    "destination": {
      "lat": 1.2894365,
      "lon": 103.8499802,
      "location": "Singapore, SINGAPORE"
    },
    "weight": 2
  },
  {
    "source": {
      "lat": 48.1391264,
      "lon": 11.5802189,
      "location": "Munich, undefined"
    },
    "destination": {
      "lat": -25.4283563,
      "lon": -49.2732515,
      "location": "Curitiba, BRAZIL"
    },
    "weight": 1
  },
  {
    "source": {
      "lat": 1.2894365,
      "lon": 103.8499802,
      "location": "Singapore, SINGAPORE"
    },
    "destination": {
      "lat": 30.9047024,
      "lon": 29.5538919,
      "location": "Borg El Arab, EGYPT"
    },
    "weight": 1
  },
  {
    "source": {
      "lat": 33.5964565,
      "lon": -7.615478,
      "location": "Casablanca, MOROCCO"
    },
    "destination": {
      "lat": 40.825873,
      "lon": -74.360771,
      "location": "East Hanover, UNITED STATES"
    },
    "weight": 2
  },
  {
    "source": {
      "lat": 40.205771,
      "lon": -74.67087,
      "location": "NJ, UNITED STATES"
    },
    "destination": {
      "lat": 1.3294889,
      "lon": 103.7382593,
      "location": "Jurong, Singapore, SINGAPORE"
    },
    "weight": 1
  },
  {
    "source": {
      "lat": -26.201452,
      "lon": 28.045488,
      "location": "Johannesburg, SOUTH AFRICA"
    },
    "destination": {
      "lat": 1.3294889,
      "lon": 103.7382593,
      "location": "Jurong, Singapore, SINGAPORE"
    },
    "weight": 1
  },
  {
    "source": {
      "lat": -26.201452,
      "lon": 28.045488,
      "location": "Johannesburg, SOUTH AFRICA"
    },
    "destination": {
      "lat": 45.4636183,
      "lon": 9.1881156,
      "location": "Milan, ITALY"
    },
    "weight": 1
  },
  {
    "source": {
      "lat": 38.729098,
      "lon": -9.220154,
      "location": "Alfragide, PORTUGAL"
    },
    "destination": {
      "lat": 52.4828994,
      "lon": -1.8934623,
      "location": "Birmingham, UNITED KINGDOM"
    },
    "weight": 1
  },
  {
    "source": {
      "lat": 38.729098,
      "lon": -9.220154,
      "location": "Alfragide, PORTUGAL"
    },
    "destination": {
      "lat": 45.4636183,
      "lon": 9.1881156,
      "location": "Milan, ITALY"
    },
    "weight": 1
  },
  {
    "source": {
      "lat": 48.1391264,
      "lon": 11.5802189,
      "location": "Munich, undefined"
    },
    "destination": {
      "lat": 52.4828994,
      "lon": -1.8934623,
      "location": "Birmingham, UNITED KINGDOM"
    },
    "weight": 2
  },
  {
    "source": {
      "lat": 48.7308001,
      "lon": 2.1742453,
      "location": "Saclay, FRANCE"
    },
    "destination": {
      "lat": 9.2901338,
      "lon": 105.726941,
      "location": "Binh Hoa Ward, VIET NAM"
    },
    "weight": 3
  },
  {
    "source": {
      "lat": -26.201452,
      "lon": 28.045488,
      "location": "Johannesburg, SOUTH AFRICA"
    },
    "destination": {
      "lat": 33.6375983,
      "lon": 116.9769588,
      "location": "Suzhou, CHINA"
    },
    "weight": 2
  },
  {
    "source": {
      "lat": 51.1105483,
      "lon": 17.0255582,
      "location": "Wroclaw, Poland, POLAND"
    },
    "destination": {
      "lat": 1.2894365,
      "lon": 103.8499802,
      "location": "Singapore, SINGAPORE"
    },
    "weight": 6
  },
  {
    "source": {
      "lat": 51.1105483,
      "lon": 17.0255582,
      "location": "Wroclaw, Poland, POLAND"
    },
    "destination": {
      "lat": 52.4828994,
      "lon": -1.8934623,
      "location": "Birmingham, UNITED KINGDOM"
    },
    "weight": 4
  },
  {
    "source": {
      "lat": -26.201452,
      "lon": 28.045488,
      "location": "Johannesburg, SOUTH AFRICA"
    },
    "destination": {
      "lat": 51.1105483,
      "lon": 17.0255582,
      "location": "Wroclaw, POLAND"
    },
    "weight": 1
  },
  {
    "source": {
      "lat": 19.1997061,
      "lon": 72.9646011,
      "location": "Thane, INDIA"
    },
    "destination": {
      "lat": 40.825873,
      "lon": -74.360771,
      "location": "East Hanover, UNITED STATES"
    },
    "weight": 4
  },
  {
    "source": {
      "lat": 40.825873,
      "lon": -74.360771,
      "location": "East Hanover, UNITED STATES"
    },
    "destination": {
      "lat": 48.7308001,
      "lon": 2.1742453,
      "location": "Saclay, France, FRANCE"
    },
    "weight": 6
  },
  {
    "source": {
      "lat": -26.201452,
      "lon": 28.045488,
      "location": "Johannesburg, SOUTH AFRICA"
    },
    "destination": {
      "lat": 48.7308001,
      "lon": 2.1742453,
      "location": "Saclay, France, FRANCE"
    },
    "weight": 3
  },
  {
    "source": {
      "lat": 51.455041,
      "lon": -0.9690884,
      "location": "Reading, UNITED KINGDOM"
    },
    "destination": {
      "lat": 33.6375983,
      "lon": 116.9769588,
      "location": "Suzhou, CHINA"
    },
    "weight": 7
  },
  {
    "source": {
      "lat": 48.7308001,
      "lon": 2.1742453,
      "location": "Saclay, France, FRANCE"
    },
    "destination": {
      "lat": 48.7308001,
      "lon": 2.1742453,
      "location": "Saclay, France, FRANCE"
    },
    "weight": 25
  },
  {
    "source": {
      "lat": 33.6375983,
      "lon": 116.9769588,
      "location": "Suzhou, CHINA"
    },
    "destination": {
      "lat": 36.19585,
      "lon": -115.114574,
      "location": "N/A, UNITED STATES"
    },
    "weight": 1
  },
  {
    "source": {
      "lat": -26.201452,
      "lon": 28.045488,
      "location": "Johannesburg, SOUTH AFRICA"
    },
    "destination": {
      "lat": 51.0487909,
      "lon": 16.9655796,
      "location": "Bielany Wroclawskie, Kobierzyce, POLAND"
    },
    "weight": 6
  },
  {
    "source": {
      "lat": 19.1997061,
      "lon": 72.9646011,
      "location": "Thane, INDIA"
    },
    "destination": {
      "lat": 51.0487909,
      "lon": 16.9655796,
      "location": "Bielany Wroclawskie, Kobierzyce, POLAND"
    },
    "weight": 3
  },
  {
    "source": {
      "lat": 40.825873,
      "lon": -74.360771,
      "location": "East Hanover, UNITED STATES"
    },
    "destination": {
      "lat": 36.19585,
      "lon": -115.114574,
      "location": "N/A, UNITED STATES"
    },
    "weight": 1
  },
  {
    "source": {
      "lat": 48.1391264,
      "lon": 11.5802189,
      "location": "Munich, GERMANY"
    },
    "destination": {
      "lat": 19.1997061,
      "lon": 72.9646011,
      "location": "Thane, INDIA"
    },
    "weight": 1
  },
  {
    "source": {
      "lat": 40.825873,
      "lon": -74.360771,
      "location": "East Hanover, UNITED STATES"
    },
    "destination": {
      "lat": 43.6518927,
      "lon": -79.381713,
      "location": "Toronto, CANADA"
    },
    "weight": 5
  },
  {
    "source": {
      "lat": 48.7308001,
      "lon": 2.1742453,
      "location": "Saclay, FRANCE"
    },
    "destination": {
      "lat": -37.814262,
      "lon": 145.227386,
      "location": "Ringwood - Melbourne, Australia, AUSTRALIA"
    },
    "weight": 1
  },
  {
    "source": {
      "lat": 19.1997061,
      "lon": 72.9646011,
      "location": "Thane, INDIA"
    },
    "destination": {
      "lat": 48.1391264,
      "lon": 11.5802189,
      "location": "Munich, Germany, GERMANY"
    },
    "weight": 1
  },
  {
    "source": {
      "lat": -26.201452,
      "lon": 28.045488,
      "location": "Johannesburg, SOUTH AFRICA"
    },
    "destination": {
      "lat": 48.1391264,
      "lon": 11.5802189,
      "location": "Munich, Germany, GERMANY"
    },
    "weight": 1
  },
  {
    "source": {
      "lat": -26.201452,
      "lon": 28.045488,
      "location": "Johannesburg, SOUTH AFRICA"
    },
    "destination": {
      "lat": 50.789124,
      "lon": -3.652245,
      "location": "Crediton, UNITED KINGDOM"
    },
    "weight": 2
  },
  {
    "source": {
      "lat": 52.4828994,
      "lon": -1.8934623,
      "location": "Birmingham, UNITED KINGDOM"
    },
    "destination": {
      "lat": -37.8323792,
      "lon": 144.9604333,
      "location": "South Melbourne, AUSTRALIA"
    },
    "weight": 1
  },
  {
    "source": {
      "lat": 51.0487909,
      "lon": 16.9655796,
      "location": "Bielany Wroclawskie, Kobierzyce, POLAND"
    },
    "destination": {
      "lat": -37.8323792,
      "lon": 144.9604333,
      "location": "South Melbourne, AUSTRALIA"
    },
    "weight": 1
  },
  {
    "source": {
      "lat": 51.455041,
      "lon": -0.9690884,
      "location": "Reading, UNITED KINGDOM"
    },
    "destination": {
      "lat": 9.2901338,
      "lon": 105.726941,
      "location": "Binh Hoa Ward, VIET NAM"
    },
    "weight": 1
  },
  {
    "source": {
      "lat": 51.455041,
      "lon": -0.9690884,
      "location": "Reading, UNITED KINGDOM"
    },
    "destination": {
      "lat": 51.1105483,
      "lon": 17.0255582,
      "location": "Wroclaw, Poland, POLAND"
    },
    "weight": 3
  },
  {
    "source": {
      "lat": 51.0487909,
      "lon": 16.9655796,
      "location": "Bielany Wroclawskie, Kobierzyce, POLAND"
    },
    "destination": {
      "lat": 51.0487909,
      "lon": 16.9655796,
      "location": "Bielany Wroclawskie, Kobierzyce, POLAND"
    },
    "weight": 19
  },
  {
    "source": {
      "lat": -26.201452,
      "lon": 28.045488,
      "location": "Johannesburg, SOUTH AFRICA"
    },
    "destination": {
      "lat": -25.4283563,
      "lon": -49.2732515,
      "location": "Curitiba, BRAZIL"
    },
    "weight": 3
  },
  {
    "source": {
      "lat": -26.201452,
      "lon": 28.045488,
      "location": "Johannesburg, SOUTH AFRICA"
    },
    "destination": {
      "lat": 36.19585,
      "lon": -115.114574,
      "location": "N/A, UNITED STATES"
    },
    "weight": 1
  },
  {
    "source": {
      "lat": 40.8248947,
      "lon": -74.4180338,
      "location": "Whippany, UNITED STATES"
    },
    "destination": {
      "lat": 51.1105483,
      "lon": 17.0255582,
      "location": "Wroclaw, Poland, POLAND"
    },
    "weight": 2
  },
  {
    "source": {
      "lat": 19.1997061,
      "lon": 72.9646011,
      "location": "Thane, INDIA"
    },
    "destination": {
      "lat": 51.1105483,
      "lon": 17.0255582,
      "location": "Wroclaw, Poland, POLAND"
    },
    "weight": 1
  },
  {
    "source": {
      "lat": 41.883229,
      "lon": -87.632398,
      "location": "Chicago, UNITED STATES"
    },
    "destination": {
      "lat": 51.1105483,
      "lon": 17.0255582,
      "location": "Wroclaw, Poland, POLAND"
    },
    "weight": 1
  },
  {
    "source": {
      "lat": 41.883229,
      "lon": -87.632398,
      "location": "Chicago, UNITED STATES"
    },
    "destination": {
      "lat": 52.4828994,
      "lon": -1.8934623,
      "location": "Birmingham, UNITED KINGDOM"
    },
    "weight": 4
  },
  {
    "source": {
      "lat": 41.883229,
      "lon": -87.632398,
      "location": "Chicago, UNITED STATES"
    },
    "destination": {
      "lat": 51.0487909,
      "lon": 16.9655796,
      "location": "Bielany Wroclawskie, Kobierzyce, POLAND"
    },
    "weight": 1
  },
  {
    "source": {
      "lat": 40.825873,
      "lon": -74.360771,
      "location": "East Hanover, UNITED STATES"
    },
    "destination": {
      "lat": 19.1997061,
      "lon": 72.9646011,
      "location": "Thane, INDIA"
    },
    "weight": 5
  },
  {
    "source": {
      "lat": -25.4283563,
      "lon": -49.2732515,
      "location": "Curitiba, BRAZIL"
    },
    "destination": {
      "lat": 51.1105483,
      "lon": 17.0255582,
      "location": "Wroclaw, Poland, POLAND"
    },
    "weight": 1
  },
  {
    "source": {
      "lat": 48.7358418,
      "lon": 2.1782035,
      "location": "Paris Saclay Tech Center (PSTC), FRANCE"
    },
    "destination": {
      "lat": 48.7358418,
      "lon": 2.1782035,
      "location": "Paris Saclay Tech Center (PSTC), FRANCE"
    },
    "weight": 8
  },
  {
    "source": {
      "lat": 48.7308001,
      "lon": 2.1742453,
      "location": "Saclay, FRANCE"
    },
    "destination": {
      "lat": 48.7358418,
      "lon": 2.1782035,
      "location": "Paris Saclay Tech Center (PSTC), FRANCE"
    },
    "weight": 1
  },
  {
    "source": {
      "lat": 43.6518927,
      "lon": -79.381713,
      "location": "Toronto, CANADA"
    },
    "destination": {
      "lat": 48.7358418,
      "lon": 2.1782035,
      "location": "Paris Saclay Tech Center (PSTC), FRANCE"
    },
    "weight": 1
  },
  {
    "source": {
      "lat": 40.825873,
      "lon": -74.360771,
      "location": "East Hanover, UNITED STATES"
    },
    "destination": {
      "lat": 48.060101,
      "lon": 11.622189,
      "location": "Unterhaching, GERMANY"
    },
    "weight": 1
  },
  {
    "source": {
      "lat": -26.201452,
      "lon": 28.045488,
      "location": "Johannesburg, SOUTH AFRICA"
    },
    "destination": {
      "lat": -35.8683286,
      "lon": 146.241889,
      "location": "Ringwood, AUSTRALIA"
    },
    "weight": 2
  },
  {
    "source": {
      "lat": -26.201452,
      "lon": 28.045488,
      "location": "Johannesburg, SOUTH AFRICA"
    },
    "destination": {
      "lat": 43.6518927,
      "lon": -79.381713,
      "location": "Toronto, CANADA"
    },
    "weight": 1
  },
  {
    "source": {
      "lat": 48.1391264,
      "lon": 11.5802189,
      "location": "Munich, Germany, GERMANY"
    },
    "destination": {
      "lat": 51.0487909,
      "lon": 16.9655796,
      "location": "Bielany Wroclawskie, Kobierzyce, POLAND"
    },
    "weight": 1
  },
  {
    "source": {
      "lat": 48.7308001,
      "lon": 2.1742453,
      "location": "Saclay, FRANCE"
    },
    "destination": {
      "lat": 51.0487909,
      "lon": 16.9655796,
      "location": "Bielany Wroclawskie, Kobierzyce, POLAND"
    },
    "weight": 5
  },
  {
    "source": {
      "lat": 51.0487909,
      "lon": 16.9655796,
      "location": "Bielany Wroclawskie, Kobierzyce, POLAND"
    },
    "destination": {
      "lat": 14.4778938,
      "lon": 121.028933,
      "location": "Paranaque City, PHILIPPINES"
    },
    "weight": 1
  },
  {
    "source": {
      "lat": 48.1391264,
      "lon": 11.5802189,
      "location": "Munich, undefined"
    },
    "destination": {
      "lat": 14.4778938,
      "lon": 121.028933,
      "location": "Paranaque City, PHILIPPINES"
    },
    "weight": 1
  },
  {
    "source": {
      "lat": 52.4828994,
      "lon": -1.8934623,
      "location": "Birmingham, UNITED KINGDOM"
    },
    "destination": {
      "lat": -26.201452,
      "lon": 28.045488,
      "location": "Johannesburg, SOUTH AFRICA"
    },
    "weight": 4
  },
  {
    "source": {
      "lat": 52.4828994,
      "lon": -1.8934623,
      "location": "Birmingham, UNITED KINGDOM"
    },
    "destination": {
      "lat": 48.7308001,
      "lon": 2.1742453,
      "location": "Saclay, FRANCE"
    },
    "weight": 5
  },
  {
    "source": {
      "lat": 52.4304509,
      "lon": -1.9342949,
      "location": "Bournville, UK, UNITED KINGDOM"
    },
    "destination": {
      "lat": 51.0487909,
      "lon": 16.9655796,
      "location": "Bielany Wroclawskie, Kobierzyce, POLAND"
    },
    "weight": 1
  },
  {
    "source": {
      "lat": 33.6375983,
      "lon": 116.9769588,
      "location": "Suzhou, CHINA"
    },
    "destination": {
      "lat": 51.0487909,
      "lon": 16.9655796,
      "location": "Bielany Wroclawskie, Kobierzyce, POLAND"
    },
    "weight": 2
  },
  {
    "source": {
      "lat": 51.1105483,
      "lon": 17.0255582,
      "location": "Wroclaw, Poland, POLAND"
    },
    "destination": {
      "lat": 51.1105483,
      "lon": 17.0255582,
      "location": "Wroclaw, Poland, POLAND"
    },
    "weight": 1
  },
  {
    "source": {
      "lat": 19.5528083,
      "lon": -99.2018818,
      "location": "Tlalnepantla de Baz, MEXICO"
    },
    "destination": {
      "lat": 52.4828994,
      "lon": -1.8934623,
      "location": "Birmingham, UNITED KINGDOM"
    },
    "weight": 5
  },
  {
    "source": {
      "lat": 43.6518927,
      "lon": -79.381713,
      "location": "Toronto, CANADA"
    },
    "destination": {
      "lat": 51.0487909,
      "lon": 16.9655796,
      "location": "Bielany Wroclawskie, Kobierzyce, POLAND"
    },
    "weight": 2
  },
  {
    "source": {
      "lat": 51.1105483,
      "lon": 17.0255582,
      "location": "Wroclaw, Poland, POLAND"
    },
    "destination": {
      "lat": 40.825873,
      "lon": -74.360771,
      "location": "East Hanover, UNITED STATES"
    },
    "weight": 3
  },
  {
    "source": {
      "lat": -26.201452,
      "lon": 28.045488,
      "location": "Johannesburg, SOUTH AFRICA"
    },
    "destination": {
      "lat": 19.5528083,
      "lon": -99.2018818,
      "location": "Tlalnepantla, Mexico, MEXICO"
    },
    "weight": 1
  },
  {
    "source": {
      "lat": 41.883229,
      "lon": -87.632398,
      "location": "Chicago, UNITED STATES"
    },
    "destination": {
      "lat": 19.1997061,
      "lon": 72.9646011,
      "location": "Thane, INDIA"
    },
    "weight": 2
  },
  {
    "source": {
      "lat": 19.1997061,
      "lon": 72.9646011,
      "location": "Thane, INDIA"
    },
    "destination": {
      "lat": 51.455041,
      "lon": -0.9690884,
      "location": "Reading, UNITED KINGDOM"
    },
    "weight": 3
  },
  {
    "source": {
      "lat": 37.9753357,
      "lon": 23.7361497,
      "location": "Athens, GREECE"
    },
    "destination": {
      "lat": 37.9753357,
      "lon": 23.7361497,
      "location": "Athens, GREECE"
    },
    "weight": 1
  },
  {
    "source": {
      "lat": 43.6518927,
      "lon": -79.381713,
      "location": "Toronto, CANADA"
    },
    "destination": {
      "lat": 52.4828994,
      "lon": -1.8934623,
      "location": "Birmingham, UNITED KINGDOM"
    },
    "weight": 7
  },
  {
    "source": {
      "lat": 37.9753357,
      "lon": 23.7361497,
      "location": "Athens, GREECE"
    },
    "destination": {
      "lat": 41.883229,
      "lon": -87.632398,
      "location": "Chicago, UNITED STATES"
    },
    "weight": 1
  },
  {
    "source": {
      "lat": 37.9753357,
      "lon": 23.7361497,
      "location": "Athens, GREECE"
    },
    "destination": {
      "lat": 40.825873,
      "lon": -74.360771,
      "location": "East Hanover, UNITED STATES"
    },
    "weight": 3
  },
  {
    "source": {
      "lat": 38.0633654,
      "lon": 23.7610318,
      "location": "Metamorfosi, GREECE"
    },
    "destination": {
      "lat": 40.825873,
      "lon": -74.360771,
      "location": "East Hanover, UNITED STATES"
    },
    "weight": 1
  },
  {
    "source": {
      "lat": 38.0633654,
      "lon": 23.7610318,
      "location": "Metamorfosi, GREECE"
    },
    "destination": {
      "lat": 37.9753357,
      "lon": 23.7361497,
      "location": "Athens, GREECE"
    },
    "weight": 1
  },
  {
    "source": {
      "lat": 41.883229,
      "lon": -87.632398,
      "location": "Chicago, UNITED STATES"
    },
    "destination": {
      "lat": 37.9753357,
      "lon": 23.7361497,
      "location": "Athens, GREECE"
    },
    "weight": 1
  },
  {
    "source": {
      "lat": 49.9767389,
      "lon": 17.8620139,
      "location": "Opava - Vavrovice, CZECH REPUBLIC"
    },
    "destination": {
      "lat": 49.9767389,
      "lon": 17.8620139,
      "location": "Opava - Vavrovice, CZECH REPUBLIC"
    },
    "weight": 1
  },
  {
    "source": {
      "lat": 42.5151255,
      "lon": -2.3716077,
      "location": "Viana, Navarra, SPAIN"
    },
    "destination": {
      "lat": 19.078951,
      "lon": -155.636246,
      "location": "NA, UNITED STATES"
    },
    "weight": 1
  },
  {
    "source": {
      "lat": 41.883229,
      "lon": -87.632398,
      "location": "Chicago, UNITED STATES"
    },
    "destination": {
      "lat": 49.9767389,
      "lon": 17.8620139,
      "location": "Opava - Vavrovice, CZECH REPUBLIC"
    },
    "weight": 1
  },
  {
    "source": {
      "lat": 42.6964917,
      "lon": 23.3260106,
      "location": "Sofia, BULGARIA"
    },
    "destination": {
      "lat": 41.883229,
      "lon": -87.632398,
      "location": "Chicago, UNITED STATES"
    },
    "weight": 1
  },
  {
    "source": {
      "lat": 42.6964917,
      "lon": 23.3260106,
      "location": "Sofia, BULGARIA"
    },
    "destination": {
      "lat": 42.6964917,
      "lon": 23.3260106,
      "location": "Sofia, BULGARIA"
    },
    "weight": 3
  },
  {
    "source": {
      "lat": 38.0633654,
      "lon": 23.7610318,
      "location": "Metamorfosi, GREECE"
    },
    "destination": {
      "lat": 42.6964917,
      "lon": 23.3260106,
      "location": "Sofia, BULGARIA"
    },
    "weight": 1
  },
  {
    "source": {
      "lat": 40.825873,
      "lon": -74.360771,
      "location": "East Hanover, UNITED STATES"
    },
    "destination": {
      "lat": 42.5151255,
      "lon": -2.3716077,
      "location": "Viana, Navarra, SPAIN"
    },
    "weight": 4
  },
  {
    "source": {
      "lat": 53.074981,
      "lon": 8.807081,
      "location": "Bremen, GERMANY"
    },
    "destination": {
      "lat": 53.074981,
      "lon": 8.807081,
      "location": "Bremen, GERMANY"
    },
    "weight": 981
  },
  {
    "source": {
      "lat": 42.5151255,
      "lon": -2.3716077,
      "location": "Viana, Navarra, SPAIN"
    },
    "destination": {
      "lat": 40.825873,
      "lon": -74.360771,
      "location": "East Hanover, UNITED STATES"
    },
    "weight": 3
  },
  {
    "source": {
      "lat": 40.825873,
      "lon": -74.360771,
      "location": "East Hanover, UNITED STATES"
    },
    "destination": {
      "lat": 19.078951,
      "lon": -155.636246,
      "location": "NA, UNITED STATES"
    },
    "weight": 1
  },
  {
    "source": {
      "lat": 51.0487909,
      "lon": 16.9655796,
      "location": "Bielany Wroclawskie, Kobierzyce, POLAND"
    },
    "destination": {
      "lat": 52.4640811,
      "lon": 16.6656627,
      "location": "Tarnowo Podgorne, POLAND"
    },
    "weight": 1
  },
  {
    "source": {
      "lat": -23.5486657,
      "lon": -46.6382522,
      "location": "Sao Paulo, BRAZIL"
    },
    "destination": {
      "lat": 52.4640811,
      "lon": 16.6656627,
      "location": "Tarnowo Podgorne, POLAND"
    },
    "weight": 1
  },
  {
    "source": {
      "lat": 40.825873,
      "lon": -74.360771,
      "location": "East Hanover, UNITED STATES"
    },
    "destination": {
      "lat": 50.789124,
      "lon": -3.652245,
      "location": "Crediton, UNITED KINGDOM"
    },
    "weight": 1
  },
  {
    "source": {
      "lat": 33.6375983,
      "lon": 116.9769588,
      "location": "Suzhou, CHINA"
    },
    "destination": {
      "lat": 19.078951,
      "lon": -155.636246,
      "location": "NA, UNITED STATES"
    },
    "weight": 1
  },
  {
    "source": {
      "lat": 37.9753357,
      "lon": 23.7361497,
      "location": "Athens, GREECE"
    },
    "destination": {
      "lat": 33.6375983,
      "lon": 116.9769588,
      "location": "Suzhou, CHINA"
    },
    "weight": 2
  },
  {
    "source": {
      "lat": 33.6375983,
      "lon": 116.9769588,
      "location": "Suzhou, CHINA"
    },
    "destination": {
      "lat": 42.5151255,
      "lon": -2.3716077,
      "location": "Viana, Navarra, SPAIN"
    },
    "weight": 1
  },
  {
    "source": {
      "lat": 1.2894365,
      "lon": 103.8499802,
      "location": "Singapore, SINGAPORE"
    },
    "destination": {
      "lat": 50.789124,
      "lon": -3.652245,
      "location": "Crediton, UNITED KINGDOM"
    },
    "weight": 2
  },
  {
    "source": {
      "lat": -26.201452,
      "lon": 28.045488,
      "location": "Johannesburg, SOUTH AFRICA"
    },
    "destination": {
      "lat": 9.2901338,
      "lon": 105.726941,
      "location": "Binh Hoa Ward, VIET NAM"
    },
    "weight": 1
  },
  {
    "source": {
      "lat": 51.1778861,
      "lon": 4.8357935,
      "location": "Herentals, BELGIUM"
    },
    "destination": {
      "lat": 51.1778861,
      "lon": 4.8357935,
      "location": "Herentals, BELGIUM"
    },
    "weight": 1
  },
  {
    "source": {
      "lat": 47.6116949,
      "lon": 7.6589039,
      "location": "Loerrach, GERMANY"
    },
    "destination": {
      "lat": 51.1778861,
      "lon": 4.8357935,
      "location": "Herentals, BELGIUM"
    },
    "weight": 3
  },
  {
    "source": {
      "lat": 40.825873,
      "lon": -74.360771,
      "location": "East Hanover, UNITED STATES"
    },
    "destination": {
      "lat": 19.5528083,
      "lon": -99.2018818,
      "location": "Tlalnepantla de Baz, MEXICO"
    },
    "weight": 4
  },
  {
    "source": {
      "lat": 19.5528083,
      "lon": -99.2018818,
      "location": "Tlalnepantla de Baz, MEXICO"
    },
    "destination": {
      "lat": 19.5528083,
      "lon": -99.2018818,
      "location": "Tlalnepantla de Baz, MEXICO"
    },
    "weight": 26
  },
  {
    "source": {
      "lat": 40.825873,
      "lon": -74.360771,
      "location": "East Hanover, UNITED STATES"
    },
    "destination": {
      "lat": 51.1778861,
      "lon": 4.8357935,
      "location": "Herentals, BELGIUM"
    },
    "weight": 1
  },
  {
    "source": {
      "lat": 19.5528083,
      "lon": -99.2018818,
      "location": "Tlalnepantla de Baz, MEXICO"
    },
    "destination": {
      "lat": 40.825873,
      "lon": -74.360771,
      "location": "East Hanover, UNITED STATES"
    },
    "weight": 4
  },
  {
    "source": {
      "lat": 51.455041,
      "lon": -0.9690884,
      "location": "Reading, UNITED KINGDOM"
    },
    "destination": {
      "lat": 51.0487909,
      "lon": 16.9655796,
      "location": "Bielany Wroclawskie, Kobierzyce, POLAND"
    },
    "weight": 4
  },
  {
    "source": {
      "lat": 37.9753357,
      "lon": 23.7361497,
      "location": "Athens, GREECE"
    },
    "destination": {
      "lat": 3.0741465,
      "lon": 101.5185805,
      "location": "Shah Alam, MALAYSIA"
    },
    "weight": 1
  },
  {
    "source": {
      "lat": 52.2349786,
      "lon": 21.0084924,
      "location": "Warszawa, POLAND"
    },
    "destination": {
      "lat": 19.078951,
      "lon": -155.636246,
      "location": "NA, UNITED STATES"
    },
    "weight": 1
  },
  {
    "source": {
      "lat": 52.2349786,
      "lon": 21.0084924,
      "location": "Warszawa, POLAND"
    },
    "destination": {
      "lat": 52.2349786,
      "lon": 21.0084924,
      "location": "Warszawa, POLAND"
    },
    "weight": 3
  },
  {
    "source": {
      "lat": 52.2349786,
      "lon": 21.0084924,
      "location": "Warszawa, POLAND"
    },
    "destination": {
      "lat": 40.825873,
      "lon": -74.360771,
      "location": "East Hanover, UNITED STATES"
    },
    "weight": 15
  },
  {
    "source": {
      "lat": 51.455041,
      "lon": -0.9690884,
      "location": "Reading, UNITED KINGDOM"
    },
    "destination": {
      "lat": 42.6964917,
      "lon": 23.3260106,
      "location": "Sofia, BULGARIA"
    },
    "weight": 1
  },
  {
    "source": {
      "lat": 19.1997061,
      "lon": 72.9646011,
      "location": "Thane, India, INDIA"
    },
    "destination": {
      "lat": 9.2901338,
      "lon": 105.726941,
      "location": "Binh Hoa Ward, VIET NAM"
    },
    "weight": 2
  },
  {
    "source": {
      "lat": 42.6964917,
      "lon": 23.3260106,
      "location": "Sofia, BULGARIA"
    },
    "destination": {
      "lat": 40.825873,
      "lon": -74.360771,
      "location": "East Hanover, UNITED STATES"
    },
    "weight": 2
  },
  {
    "source": {
      "lat": 51.0487909,
      "lon": 16.9655796,
      "location": "Bielany Wroclawskie, Kobierzyce, POLAND"
    },
    "destination": {
      "lat": 51.455041,
      "lon": -0.9690884,
      "location": "Reading, UNITED KINGDOM"
    },
    "weight": 1
  },
  {
    "source": {
      "lat": 42.6964917,
      "lon": 23.3260106,
      "location": "Sofia, BULGARIA"
    },
    "destination": {
      "lat": 25.572595,
      "lon": -99.968972,
      "location": "Nuevo Leon, MEXICO"
    },
    "weight": 1
  },
  {
    "source": {
      "lat": 41.883229,
      "lon": -87.632398,
      "location": "Chicago, UNITED STATES"
    },
    "destination": {
      "lat": -25.4283563,
      "lon": -49.2732515,
      "location": "Curitiba, BRAZIL"
    },
    "weight": 1
  },
  {
    "source": {
      "lat": 13.7834898,
      "lon": 100.8146582,
      "location": "Lad Krabang, THAILAND"
    },
    "destination": {
      "lat": 41.883229,
      "lon": -87.632398,
      "location": "Chicago, UNITED STATES"
    },
    "weight": 3
  },
  {
    "source": {
      "lat": 13.7834898,
      "lon": 100.8146582,
      "location": "Lad Krabang, THAILAND"
    },
    "destination": {
      "lat": 47.4225206,
      "lon": 8.56099,
      "location": "Glattpark, SWITZERLAND"
    },
    "weight": 2
  },
  {
    "source": {
      "lat": 13.7834898,
      "lon": 100.8146582,
      "location": "Lad Krabang, THAILAND"
    },
    "destination": {
      "lat": 25.572595,
      "lon": -99.968972,
      "location": "Nuevo Leon, MEXICO"
    },
    "weight": 1
  },
  {
    "source": {
      "lat": 13.7834898,
      "lon": 100.8146582,
      "location": "Lad Krabang, THAILAND"
    },
    "destination": {
      "lat": 40.825873,
      "lon": -74.360771,
      "location": "East Hanover, UNITED STATES"
    },
    "weight": 6
  },
  {
    "source": {
      "lat": 47.4225206,
      "lon": 8.56099,
      "location": "Glattpark, SWITZERLAND"
    },
    "destination": {
      "lat": 42.5151255,
      "lon": -2.3716077,
      "location": "Viana, Navarra, SPAIN"
    },
    "weight": 1
  },
  {
    "source": {
      "lat": 43.6518927,
      "lon": -79.381713,
      "location": "Toronto, CANADA"
    },
    "destination": {
      "lat": -25.4283563,
      "lon": -49.2732515,
      "location": "Curitiba, BRAZIL"
    },
    "weight": 4
  },
  {
    "source": {
      "lat": 43.6518927,
      "lon": -79.381713,
      "location": "Toronto, CANADA"
    },
    "destination": {
      "lat": 40.825873,
      "lon": -74.360771,
      "location": "East Hanover, UNITED STATES"
    },
    "weight": 9
  },
  {
    "source": {
      "lat": 47.6116949,
      "lon": 7.6589039,
      "location": "Loerrach, GERMANY"
    },
    "destination": {
      "lat": 53.074981,
      "lon": 8.807081,
      "location": "Bremen, GERMANY"
    },
    "weight": 4
  },
  {
    "source": {
      "lat": 47.6116949,
      "lon": 7.6589039,
      "location": "Loerrach, GERMANY"
    },
    "destination": {
      "lat": 40.825873,
      "lon": -74.360771,
      "location": "East Hanover, UNITED STATES"
    },
    "weight": 9
  },
  {
    "source": {
      "lat": 37.9753357,
      "lon": 23.7361497,
      "location": "Athens, GREECE"
    },
    "destination": {
      "lat": 1.2894365,
      "lon": 103.8499802,
      "location": "Singapore, SINGAPORE"
    },
    "weight": 1
  },
  {
    "source": {
      "lat": 52.4828994,
      "lon": -1.8934623,
      "location": "Birmingham, UNITED KINGDOM"
    },
    "destination": {
      "lat": 52.2262757,
      "lon": -2.7387275,
      "location": "Leominster, UNITED KINGDOM"
    },
    "weight": 4
  },
  {
    "source": {
      "lat": 47.6116949,
      "lon": 7.6589039,
      "location": "Loerrach, GERMANY"
    },
    "destination": {
      "lat": 25.572595,
      "lon": -99.968972,
      "location": "Nuevo Leon, MEXICO"
    },
    "weight": 1
  },
  {
    "source": {
      "lat": 33.6375983,
      "lon": 116.9769588,
      "location": "Suzhou, CHINA"
    },
    "destination": {
      "lat": -25.4283563,
      "lon": -49.2732515,
      "location": "Curitiba, BRAZIL"
    },
    "weight": 1
  },
  {
    "source": {
      "lat": 47.6116949,
      "lon": 7.6589039,
      "location": "Loerrach, GERMANY"
    },
    "destination": {
      "lat": 47.6116949,
      "lon": 7.6589039,
      "location": "Loerrach, GERMANY"
    },
    "weight": 2
  },
  {
    "source": {
      "lat": 51.1105483,
      "lon": 17.0255582,
      "location": "Wroclaw, Poland, POLAND"
    },
    "destination": {
      "lat": -25.4283563,
      "lon": -49.2732515,
      "location": "Curitiba, BRAZIL"
    },
    "weight": 4
  },
  {
    "source": {
      "lat": 51.1105483,
      "lon": 17.0255582,
      "location": "Wroclaw, Poland, POLAND"
    },
    "destination": {
      "lat": -35.8683286,
      "lon": 146.241889,
      "location": "Ringwood, AUSTRALIA"
    },
    "weight": 4
  },
  {
    "source": {
      "lat": 51.1105483,
      "lon": 17.0255582,
      "location": "Wroclaw, Poland, POLAND"
    },
    "destination": {
      "lat": 51.0487909,
      "lon": 16.9655796,
      "location": "Bielany Wroclawskie, Kobierzyce, POLAND"
    },
    "weight": 3
  },
  {
    "source": {
      "lat": 19.1997061,
      "lon": 72.9646011,
      "location": "Thane, India, INDIA"
    },
    "destination": {
      "lat": 1.2894365,
      "lon": 103.8499802,
      "location": "Singapore, SINGAPORE"
    },
    "weight": 2
  },
  {
    "source": {
      "lat": 52.4828994,
      "lon": -1.8934623,
      "location": "Birmingham, UNITED KINGDOM"
    },
    "destination": {
      "lat": -45.5772823,
      "lon": -71.0327847,
      "location": "Ricardo Rojas, ARGENTINA"
    },
    "weight": 3
  },
  {
    "source": {
      "lat": -25.4283563,
      "lon": -49.2732515,
      "location": "Curitiba, BRAZIL"
    },
    "destination": {
      "lat": 47.4225206,
      "lon": 8.56099,
      "location": "Glattpark, SWITZERLAND"
    },
    "weight": 2
  },
  {
    "source": {
      "lat": 41.883229,
      "lon": -87.632398,
      "location": "Chicago, UNITED STATES"
    },
    "destination": {
      "lat": 47.6116949,
      "lon": 7.6589039,
      "location": "Loerrach, GERMANY"
    },
    "weight": 1
  },
  {
    "source": {
      "lat": 19.5528083,
      "lon": -99.2018818,
      "location": "Tlalnepantla de Baz, MEXICO"
    },
    "destination": {
      "lat": 51.0487909,
      "lon": 16.9655796,
      "location": "Bielany Wroclawskie, Kobierzyce, POLAND"
    },
    "weight": 6
  },
  {
    "source": {
      "lat": 19.5528083,
      "lon": -99.2018818,
      "location": "Tlalnepantla de Baz, MEXICO"
    },
    "destination": {
      "lat": -25.4283563,
      "lon": -49.2732515,
      "location": "Curitiba, BRAZIL"
    },
    "weight": 1
  },
  {
    "source": {
      "lat": 19.1997061,
      "lon": 72.9646011,
      "location": "Thane, INDIA"
    },
    "destination": {
      "lat": 19.5528083,
      "lon": -99.2018818,
      "location": "Tlalnepantla de Baz, MEXICO"
    },
    "weight": 2
  },
  {
    "source": {
      "lat": 41.883229,
      "lon": -87.632398,
      "location": "Chicago, UNITED STATES"
    },
    "destination": {
      "lat": 53.074981,
      "lon": 8.807081,
      "location": "Bremen, GERMANY"
    },
    "weight": 1
  },
  {
    "source": {
      "lat": 53.074981,
      "lon": 8.807081,
      "location": "Bremen, GERMANY"
    },
    "destination": {
      "lat": 3.0741465,
      "lon": 101.5185805,
      "location": "Shah Alam, MALAYSIA"
    },
    "weight": 1
  },
  {
    "source": {
      "lat": -25.4283563,
      "lon": -49.2732515,
      "location": "Curitiba, BRAZIL"
    },
    "destination": {
      "lat": 53.074981,
      "lon": 8.807081,
      "location": "Bremen, GERMANY"
    },
    "weight": 2
  },
  {
    "source": {
      "lat": 1.2894365,
      "lon": 103.8499802,
      "location": "Singapore, SINGAPORE"
    },
    "destination": {
      "lat": 41.883229,
      "lon": -87.632398,
      "location": "Chicago, UNITED STATES"
    },
    "weight": 5
  },
  {
    "source": {
      "lat": 52.4828994,
      "lon": -1.8934623,
      "location": "Birmingham, UNITED KINGDOM"
    },
    "destination": {
      "lat": 19.5528083,
      "lon": -99.2018818,
      "location": "Tlalnepantla de Baz, MEXICO"
    },
    "weight": 5
  },
  {
    "source": {
      "lat": 51.1778861,
      "lon": 4.8357935,
      "location": "Herentals, BELGIUM"
    },
    "destination": {
      "lat": 53.074981,
      "lon": 8.807081,
      "location": "Bremen, GERMANY"
    },
    "weight": 1
  },
  {
    "source": {
      "lat": 47.4225206,
      "lon": 8.56099,
      "location": "Glattpark, SWITZERLAND"
    },
    "destination": {
      "lat": 40.825873,
      "lon": -74.360771,
      "location": "East Hanover, UNITED STATES"
    },
    "weight": 10
  },
  {
    "source": {
      "lat": 52.2349786,
      "lon": 21.0084924,
      "location": "Warszawa, POLAND"
    },
    "destination": {
      "lat": 52.4828994,
      "lon": -1.8934623,
      "location": "Birmingham, UNITED KINGDOM"
    },
    "weight": 6
  },
  {
    "source": {
      "lat": 14.4778938,
      "lon": 121.028933,
      "location": "Paranaque City, PHILIPPINES"
    },
    "destination": {
      "lat": 52.4828994,
      "lon": -1.8934623,
      "location": "Birmingham, UNITED KINGDOM"
    },
    "weight": 2
  },
  {
    "source": {
      "lat": 43.6518927,
      "lon": -79.381713,
      "location": "Toronto, CANADA"
    },
    "destination": {
      "lat": 19.5528083,
      "lon": -99.2018818,
      "location": "Tlalnepantla de Baz, MEXICO"
    },
    "weight": 1
  },
  {
    "source": {
      "lat": 51.455041,
      "lon": -0.9690884,
      "location": "Reading, UNITED KINGDOM"
    },
    "destination": {
      "lat": 19.5528083,
      "lon": -99.2018818,
      "location": "Tlalnepantla de Baz, MEXICO"
    },
    "weight": 2
  },
  {
    "source": {
      "lat": 51.1105483,
      "lon": 17.0255582,
      "location": "Wroclaw, Poland, POLAND"
    },
    "destination": {
      "lat": 50.789124,
      "lon": -3.652245,
      "location": "Crediton, UNITED KINGDOM"
    },
    "weight": 1
  },
  {
    "source": {
      "lat": 50.789124,
      "lon": -3.652245,
      "location": "Crediton, UNITED KINGDOM"
    },
    "destination": {
      "lat": 40.825873,
      "lon": -74.360771,
      "location": "East Hanover, UNITED STATES"
    },
    "weight": 1
  },
  {
    "source": {
      "lat": 40.825873,
      "lon": -74.360771,
      "location": "East Hanover, UNITED STATES"
    },
    "destination": {
      "lat": 25.572595,
      "lon": -99.968972,
      "location": "Nuevo Leon, MEXICO"
    },
    "weight": 2
  },
  {
    "source": {
      "lat": 52.2262757,
      "lon": -2.7387275,
      "location": "Leominster, UNITED KINGDOM"
    },
    "destination": {
      "lat": -35.8683286,
      "lon": 146.241889,
      "location": "Ringwood, AUSTRALIA"
    },
    "weight": 1
  },
  {
    "source": {
      "lat": 51.0487909,
      "lon": 16.9655796,
      "location": "Bielany Wroclawskie, Kobierzyce, POLAND"
    },
    "destination": {
      "lat": 50.789124,
      "lon": -3.652245,
      "location": "Crediton, UNITED KINGDOM"
    },
    "weight": 1
  },
  {
    "source": {
      "lat": 51.0487909,
      "lon": 16.9655796,
      "location": "Bielany Wroclawskie, Kobierzyce, POLAND"
    },
    "destination": {
      "lat": 40.825873,
      "lon": -74.360771,
      "location": "East Hanover, UNITED STATES"
    },
    "weight": 1
  },
  {
    "source": {
      "lat": -25.4283563,
      "lon": -49.2732515,
      "location": "Curitiba, BRAZIL"
    },
    "destination": {
      "lat": 19.5528083,
      "lon": -99.2018818,
      "location": "Tlalnepantla de Baz, MEXICO"
    },
    "weight": 2
  },
  {
    "source": {
      "lat": 1.2894365,
      "lon": 103.8499802,
      "location": "Singapore, SINGAPORE"
    },
    "destination": {
      "lat": 53.074981,
      "lon": 8.807081,
      "location": "Bremen, GERMANY"
    },
    "weight": 1
  },
  {
    "source": {
      "lat": 53.074981,
      "lon": 8.807081,
      "location": "Bremen, GERMANY"
    },
    "destination": {
      "lat": 40.825873,
      "lon": -74.360771,
      "location": "East Hanover, UNITED STATES"
    },
    "weight": 9
  },
  {
    "source": {
      "lat": 51.1105483,
      "lon": 17.0255582,
      "location": "Wroclaw, Poland, POLAND"
    },
    "destination": {
      "lat": 19.5528083,
      "lon": -99.2018818,
      "location": "Tlalnepantla de Baz, MEXICO"
    },
    "weight": 2
  },
  {
    "source": {
      "lat": 9.9331345,
      "lon": -84.0797794,
      "location": "San Jose, COSTA RICA"
    },
    "destination": {
      "lat": 40.825873,
      "lon": -74.360771,
      "location": "East Hanover, UNITED STATES"
    },
    "weight": 2
  },
  {
    "source": {
      "lat": 26.289854,
      "lon": -98.295147,
      "location": "N/A, MEXICO"
    },
    "destination": {
      "lat": 40.825873,
      "lon": -74.360771,
      "location": "East Hanover, UNITED STATES"
    },
    "weight": 6
  },
  {
    "source": {
      "lat": 28.6324252,
      "lon": 77.218791,
      "location": "India, INDIA"
    },
    "destination": {
      "lat": 40.825873,
      "lon": -74.360771,
      "location": "East Hanover, UNITED STATES"
    },
    "weight": 3
  },
  {
    "source": {
      "lat": 38.8999019,
      "lon": 22.4336804,
      "location": "Lamia, GREECE"
    },
    "destination": {
      "lat": 40.825873,
      "lon": -74.360771,
      "location": "East Hanover, UNITED STATES"
    },
    "weight": 5
  },
  {
    "source": {
      "lat": 16.7276035,
      "lon": 96.28688,
      "location": "All Regions (Global), SINGAPORE"
    },
    "destination": {
      "lat": 42.5151255,
      "lon": -2.3716077,
      "location": "Viana, Navarra, SPAIN"
    },
    "weight": 1
  },
  {
    "source": {
      "lat": 16.7276035,
      "lon": 96.28688,
      "location": "All Regions (Global), SINGAPORE"
    },
    "destination": {
      "lat": 40.825873,
      "lon": -74.360771,
      "location": "East Hanover, UNITED STATES"
    },
    "weight": 1
  },
  {
    "source": {
      "lat": 16.7276035,
      "lon": 96.28688,
      "location": "All Regions (Global), SINGAPORE"
    },
    "destination": {
      "lat": 47.4225206,
      "lon": 8.56099,
      "location": "Glattpark, SWITZERLAND"
    },
    "weight": 1
  },
  {
    "source": {
      "lat": 40.205771,
      "lon": -74.67087,
      "location": "NJ, UNITED STATES"
    },
    "destination": {
      "lat": 19.5528083,
      "lon": -99.2018818,
      "location": "Tlalnepantla de Baz, MEXICO"
    },
    "weight": 2
  },
  {
    "source": {
      "lat": 51.1778861,
      "lon": 4.8357935,
      "location": "Herentals, BELGIUM"
    },
    "destination": {
      "lat": 40.825873,
      "lon": -74.360771,
      "location": "East Hanover, UNITED STATES"
    },
    "weight": 13
  },
  {
    "source": {
      "lat": 38.8999019,
      "lon": 22.4336804,
      "location": "Lamia, GREECE"
    },
    "destination": {
      "lat": 43.6518927,
      "lon": -79.381713,
      "location": "Toronto, CANADA"
    },
    "weight": 1
  },
  {
    "source": {
      "lat": 48.1464009,
      "lon": 17.1068781,
      "location": "Bratislava, SLOVAKIA"
    },
    "destination": {
      "lat": 40.825873,
      "lon": -74.360771,
      "location": "East Hanover, UNITED STATES"
    },
    "weight": 5
  },
  {
    "source": {
      "lat": 1.2894365,
      "lon": 103.8499802,
      "location": "Singapore, SINGAPORE"
    },
    "destination": {
      "lat": 50.483318,
      "lon": 4.7509103,
      "location": "Temploux, BELGIUM"
    },
    "weight": 1
  },
  {
    "source": {
      "lat": 50.3923917,
      "lon": 3.5387591,
      "location": "W. Europe, N. Europe & C. Europe (All), SPAIN"
    },
    "destination": {
      "lat": 40.825873,
      "lon": -74.360771,
      "location": "East Hanover, UNITED STATES"
    },
    "weight": 2
  },
  {
    "source": {
      "lat": 25.572595,
      "lon": -99.968972,
      "location": "Nuevo Leon, MEXICO"
    },
    "destination": {
      "lat": 43.6518927,
      "lon": -79.381713,
      "location": "Toronto, CANADA"
    },
    "weight": 1
  },
  {
    "source": {
      "lat": 35.670018,
      "lon": -95.158994,
      "location": "Central Europe Only, AUSTRIA"
    },
    "destination": {
      "lat": 40.825873,
      "lon": -74.360771,
      "location": "East Hanover, UNITED STATES"
    },
    "weight": 1
  },
  {
    "source": {
      "lat": 1.2894365,
      "lon": 103.8499802,
      "location": "Singapore, SINGAPORE"
    },
    "destination": {
      "lat": 47.4225206,
      "lon": 8.56099,
      "location": "Glattpark, SWITZERLAND"
    },
    "weight": 1
  },
  {
    "source": {
      "lat": 1.2894365,
      "lon": 103.8499802,
      "location": "Singapore, SINGAPORE"
    },
    "destination": {
      "lat": 42.5151255,
      "lon": -2.3716077,
      "location": "Viana, Navarra, SPAIN"
    },
    "weight": 1
  },
  {
    "source": {
      "lat": 40.825873,
      "lon": -74.360771,
      "location": "East Hanover, UNITED STATES"
    },
    "destination": {
      "lat": 1.3294889,
      "lon": 103.7382593,
      "location": "Jurong, Singapore, SINGAPORE"
    },
    "weight": 1
  },
  {
    "source": {
      "lat": 52.2349786,
      "lon": 21.0084924,
      "location": "Warszawa, POLAND"
    },
    "destination": {
      "lat": 43.6518927,
      "lon": -79.381713,
      "location": "Toronto, CANADA"
    },
    "weight": 2
  },
  {
    "source": {
      "lat": -23.5486657,
      "lon": -46.6382522,
      "location": "Sao Paulo, BRAZIL"
    },
    "destination": {
      "lat": -23.5486657,
      "lon": -46.6382522,
      "location": "Sao Paulo, BRAZIL"
    },
    "weight": 15
  },
  {
    "source": {
      "lat": 40.825873,
      "lon": -74.360771,
      "location": "East Hanover, UNITED STATES"
    },
    "destination": {
      "lat": 41.5425435,
      "lon": 2.2637794,
      "location": "Montornes Del Valles, Barcelona, SPAIN"
    },
    "weight": 1
  },
  {
    "source": {
      "lat": 52.4828994,
      "lon": -1.8934623,
      "location": "Birmingham, UNITED KINGDOM"
    },
    "destination": {
      "lat": 52.2349786,
      "lon": 21.0084924,
      "location": "Warszawa, POLAND"
    },
    "weight": 3
  },
  {
    "source": {
      "lat": 19.078951,
      "lon": -155.636246,
      "location": "NA, UNITED STATES"
    },
    "destination": {
      "lat": 40.825873,
      "lon": -74.360771,
      "location": "East Hanover, UNITED STATES"
    },
    "weight": 4
  },
  {
    "source": {
      "lat": 27.5157309,
      "lon": -99.4649308,
      "location": "N/A, INDIA"
    },
    "destination": {
      "lat": 40.825873,
      "lon": -74.360771,
      "location": "East Hanover, UNITED STATES"
    },
    "weight": 7
  },
  {
    "source": {
      "lat": 52.4828994,
      "lon": -1.8934623,
      "location": "Birmingham, UNITED KINGDOM"
    },
    "destination": {
      "lat": 26.230053,
      "lon": 50.6556183,
      "location": "Al Hidd, BAHRAIN"
    },
    "weight": 3
  },
  {
    "source": {
      "lat": 47.1887157,
      "lon": 18.4138088,
      "location": "Szekesfehervar, HUNGARY"
    },
    "destination": {
      "lat": 40.825873,
      "lon": -74.360771,
      "location": "East Hanover, UNITED STATES"
    },
    "weight": 1
  },
  {
    "source": {
      "lat": 40.825873,
      "lon": -74.360771,
      "location": "East Hanover, UNITED STATES"
    },
    "destination": {
      "lat": 47.4225206,
      "lon": 8.56099,
      "location": "Glattpark, SWITZERLAND"
    },
    "weight": 2
  },
  {
    "source": {
      "lat": 50.5146294,
      "lon": 14.0512943,
      "location": "Lovosice, CZECH REPUBLIC"
    },
    "destination": {
      "lat": 40.825873,
      "lon": -74.360771,
      "location": "East Hanover, UNITED STATES"
    },
    "weight": 2
  },
  {
    "source": {
      "lat": -25.4283563,
      "lon": -49.2732515,
      "location": "Curitiba, BRAZIL"
    },
    "destination": {
      "lat": 50.5146294,
      "lon": 14.0512943,
      "location": "Lovosice, CZECH REPUBLIC"
    },
    "weight": 2
  },
  {
    "source": {
      "lat": 52.2349786,
      "lon": 21.0084924,
      "location": "Warszawa, POLAND"
    },
    "destination": {
      "lat": 47.4225206,
      "lon": 8.56099,
      "location": "Glattpark, SWITZERLAND"
    },
    "weight": 1
  },
  {
    "source": {
      "lat": 37.9753357,
      "lon": 23.7361497,
      "location": "Athens, GREECE"
    },
    "destination": {
      "lat": 50.5146294,
      "lon": 14.0512943,
      "location": "Lovosice, CZECH REPUBLIC"
    },
    "weight": 1
  },
  {
    "source": {
      "lat": 27.5157309,
      "lon": -99.4649308,
      "location": "N/A, INDIA"
    },
    "destination": {
      "lat": 50.5146294,
      "lon": 14.0512943,
      "location": "Lovosice, CZECH REPUBLIC"
    },
    "weight": 2
  },
  {
    "source": {
      "lat": 52.2262757,
      "lon": -2.7387275,
      "location": "Leominster, UNITED KINGDOM"
    },
    "destination": {
      "lat": 40.825873,
      "lon": -74.360771,
      "location": "East Hanover, UNITED STATES"
    },
    "weight": 2
  },
  {
    "source": {
      "lat": 24.1620845,
      "lon": -110.3130082,
      "location": "LA, MEXICO"
    },
    "destination": {
      "lat": 40.825873,
      "lon": -74.360771,
      "location": "East Hanover, UNITED STATES"
    },
    "weight": 1
  },
  {
    "source": {
      "lat": 25.6649145,
      "lon": -100.2054945,
      "location": "Guadalupe, MEXICO"
    },
    "destination": {
      "lat": 40.825873,
      "lon": -74.360771,
      "location": "East Hanover, UNITED STATES"
    },
    "weight": 1
  },
  {
    "source": {
      "lat": 53.074981,
      "lon": 8.807081,
      "location": "Bremen, GERMANY"
    },
    "destination": {
      "lat": 50.5146294,
      "lon": 14.0512943,
      "location": "Lovosice, CZECH REPUBLIC"
    },
    "weight": 1
  },
  {
    "source": {
      "lat": 47.4225206,
      "lon": 8.56099,
      "location": "Glattpark, SWITZERLAND"
    },
    "destination": {
      "lat": 51.5380493,
      "lon": 20.0085251,
      "location": "Tomaszow Mazowiecki, POLAND"
    },
    "weight": 1
  },
  {
    "source": {
      "lat": 40.205771,
      "lon": -74.67087,
      "location": "NJ, UNITED STATES"
    },
    "destination": {
      "lat": 19.4326773,
      "lon": -99.1342112,
      "location": "Mexico, MEXICO"
    },
    "weight": 1
  },
  {
    "source": {
      "lat": 26.289854,
      "lon": -98.295147,
      "location": "N/A, MEXICO"
    },
    "destination": {
      "lat": 19.4326773,
      "lon": -99.1342112,
      "location": "Mexico, MEXICO"
    },
    "weight": 1
  },
  {
    "source": {
      "lat": 26.289854,
      "lon": -98.295147,
      "location": "N/A, MEXICO"
    },
    "destination": {
      "lat": 26.289854,
      "lon": -98.295147,
      "location": "N/A, MEXICO"
    },
    "weight": 1
  },
  {
    "source": {
      "lat": 9.9331345,
      "lon": -84.0797794,
      "location": "San Jose, COSTA RICA"
    },
    "destination": {
      "lat": 9.9331345,
      "lon": -84.0797794,
      "location": "San Jose, COSTA RICA"
    },
    "weight": 5
  },
  {
    "source": {
      "lat": 27.5157309,
      "lon": -99.4649308,
      "location": "N/A, INDIA"
    },
    "destination": {
      "lat": 47.4225206,
      "lon": 8.56099,
      "location": "Glattpark, SWITZERLAND"
    },
    "weight": 1
  },
  {
    "source": {
      "lat": 19.4326773,
      "lon": -99.1342112,
      "location": "Mexico, MEXICO"
    },
    "destination": {
      "lat": 26.289854,
      "lon": -98.295147,
      "location": "N/A, MEXICO"
    },
    "weight": 1
  },
  {
    "source": {
      "lat": 51.5380493,
      "lon": 20.0085251,
      "location": "Tomaszow Mazowiecki, POLAND"
    },
    "destination": {
      "lat": 40.825873,
      "lon": -74.360771,
      "location": "East Hanover, UNITED STATES"
    },
    "weight": 1
  },
  {
    "source": {
      "lat": 23.1302756,
      "lon": 113.2888756,
      "location": "Guangzhou, CHINA"
    },
    "destination": {
      "lat": 40.825873,
      "lon": -74.360771,
      "location": "East Hanover, UNITED STATES"
    },
    "weight": 1
  },
  {
    "source": {
      "lat": 40.205771,
      "lon": -74.67087,
      "location": "NJ, UNITED STATES"
    },
    "destination": {
      "lat": 43.6518927,
      "lon": -79.381713,
      "location": "Toronto, CANADA"
    },
    "weight": 1
  },
  {
    "source": {
      "lat": 19.4326773,
      "lon": -99.1342112,
      "location": "Mexico, MEXICO"
    },
    "destination": {
      "lat": 40.825873,
      "lon": -74.360771,
      "location": "East Hanover, UNITED STATES"
    },
    "weight": 1
  },
  {
    "source": {
      "lat": 1.2894365,
      "lon": 103.8499802,
      "location": "Singapore, SINGAPORE"
    },
    "destination": {
      "lat": 26.289854,
      "lon": -98.295147,
      "location": "N/A, MEXICO"
    },
    "weight": 1
  },
  {
    "source": {
      "lat": 41.5425435,
      "lon": 2.2637794,
      "location": "Montornes Del Valles, Barcelona, SPAIN"
    },
    "destination": {
      "lat": 40.825873,
      "lon": -74.360771,
      "location": "East Hanover, UNITED STATES"
    },
    "weight": 1
  },
  {
    "source": {
      "lat": 40.205771,
      "lon": -74.67087,
      "location": "NJ, UNITED STATES"
    },
    "destination": {
      "lat": 50.789124,
      "lon": -3.652245,
      "location": "Crediton, UNITED KINGDOM"
    },
    "weight": 1
  },
  {
    "source": {
      "lat": 51.1778861,
      "lon": 4.8357935,
      "location": "Herentals, BELGIUM"
    },
    "destination": {
      "lat": -26.4874016,
      "lon": 31.3137714,
      "location": "Matsapha, SWAZILAND"
    },
    "weight": 3
  },
  {
    "source": {
      "lat": 51.455041,
      "lon": -0.9690884,
      "location": "Reading, UNITED KINGDOM"
    },
    "destination": {
      "lat": -3.793119,
      "lon": 121.820072,
      "location": "South East Asia, INDONESIA"
    },
    "weight": 1
  },
  {
    "source": {
      "lat": 33.6375983,
      "lon": 116.9769588,
      "location": "Suzhou, CHINA"
    },
    "destination": {
      "lat": 47.4225206,
      "lon": 8.56099,
      "location": "Glattpark, SWITZERLAND"
    },
    "weight": 2
  },
  {
    "source": {
      "lat": 47.4225206,
      "lon": 8.56099,
      "location": "Glattpark, SWITZERLAND"
    },
    "destination": {
      "lat": 53.074981,
      "lon": 8.807081,
      "location": "Bremen, GERMANY"
    },
    "weight": 1
  },
  {
    "source": {
      "lat": 33.6375983,
      "lon": 116.9769588,
      "location": "Suzhou, CHINA"
    },
    "destination": {
      "lat": 53.074981,
      "lon": 8.807081,
      "location": "Bremen, GERMANY"
    },
    "weight": 2
  },
  {
    "source": {
      "lat": 40.825873,
      "lon": -74.360771,
      "location": "East Hanover, UNITED STATES"
    },
    "destination": {
      "lat": -8.1143608,
      "lon": -35.2857568,
      "location": "Vitoria De Santo Antao, BRAZIL"
    },
    "weight": 1
  },
  {
    "source": {
      "lat": -23.5486657,
      "lon": -46.6382522,
      "location": "Sao Paulo, BRAZIL"
    },
    "destination": {
      "lat": 52.2349786,
      "lon": 21.0084924,
      "location": "Warszawa, POLAND"
    },
    "weight": 1
  },
  {
    "source": {
      "lat": 40.825873,
      "lon": -74.360771,
      "location": "East Hanover, UNITED STATES"
    },
    "destination": {
      "lat": -3.793119,
      "lon": 121.820072,
      "location": "South East Asia, INDONESIA"
    },
    "weight": 1
  },
  {
    "source": {
      "lat": 36.19585,
      "lon": -115.114574,
      "location": "N/A, UNITED STATES"
    },
    "destination": {
      "lat": 48.7308001,
      "lon": 2.1742453,
      "location": "Saclay, FRANCE"
    },
    "weight": 1
  },
  {
    "source": {
      "lat": 33.6375983,
      "lon": 116.9769588,
      "location": "Suzhou, CHINA"
    },
    "destination": {
      "lat": 3.0741465,
      "lon": 101.5185805,
      "location": "Shah Alam, MALAYSIA"
    },
    "weight": 1
  },
  {
    "source": {
      "lat": 27.5157309,
      "lon": -99.4649308,
      "location": "N/A, INDIA"
    },
    "destination": {
      "lat": 18.7348521,
      "lon": 73.7162582,
      "location": "Induri, INDIA"
    },
    "weight": 1
  },
  {
    "source": {
      "lat": 51.1778861,
      "lon": 4.8357935,
      "location": "Herentals, BELGIUM"
    },
    "destination": {
      "lat": 43.6518927,
      "lon": -79.381713,
      "location": "Toronto, CANADA"
    },
    "weight": 5
  },
  {
    "source": {
      "lat": -25.4283563,
      "lon": -49.2732515,
      "location": "Curitiba, BRAZIL"
    },
    "destination": {
      "lat": 43.6518927,
      "lon": -79.381713,
      "location": "Toronto, CANADA"
    },
    "weight": 4
  },
  {
    "source": {
      "lat": 1.2894365,
      "lon": 103.8499802,
      "location": "Singapore, SINGAPORE"
    },
    "destination": {
      "lat": 43.6518927,
      "lon": -79.381713,
      "location": "Toronto, CANADA"
    },
    "weight": 1
  },
  {
    "source": {
      "lat": 27.5157309,
      "lon": -99.4649308,
      "location": "N/A, INDIA"
    },
    "destination": {
      "lat": 43.6518927,
      "lon": -79.381713,
      "location": "Toronto, CANADA"
    },
    "weight": 1
  },
  {
    "source": {
      "lat": 52.4828994,
      "lon": -1.8934623,
      "location": "Birmingham, UNITED KINGDOM"
    },
    "destination": {
      "lat": 47.6116949,
      "lon": 7.6589039,
      "location": "Loerrach, GERMANY"
    },
    "weight": 5
  },
  {
    "source": {
      "lat": 47.6116949,
      "lon": 7.6589039,
      "location": "Loerrach, GERMANY"
    },
    "destination": {
      "lat": 45.4204213,
      "lon": -75.6924321,
      "location": "Canada, CANADA"
    },
    "weight": 1
  },
  {
    "source": {
      "lat": 53.074981,
      "lon": 8.807081,
      "location": "Bremen, GERMANY"
    },
    "destination": {
      "lat": 43.6518927,
      "lon": -79.381713,
      "location": "Toronto, CANADA"
    },
    "weight": 1
  },
  {
    "source": {
      "lat": 19.4326773,
      "lon": -99.1342112,
      "location": "Mexico, MEXICO"
    },
    "destination": {
      "lat": 41.883229,
      "lon": -87.632398,
      "location": "Chicago, UNITED STATES"
    },
    "weight": 1
  },
  {
    "source": {
      "lat": 18.7348521,
      "lon": 73.7162582,
      "location": "Induri, INDIA"
    },
    "destination": {
      "lat": 13.7834898,
      "lon": 100.8146582,
      "location": "Lad Krabang, THAILAND"
    },
    "weight": 1
  },
  {
    "source": {
      "lat": 19.1997061,
      "lon": 72.9646011,
      "location": "Thane, INDIA"
    },
    "destination": {
      "lat": 18.9690472,
      "lon": 72.8211807,
      "location": "Mumbai, INDIA"
    },
    "weight": 1
  },
  {
    "source": {
      "lat": 40.797195,
      "lon": 29.436931,
      "location": "Gebze, TURKEY"
    },
    "destination": {
      "lat": 40.825873,
      "lon": -74.360771,
      "location": "East Hanover, UNITED STATES"
    },
    "weight": 5
  },
  {
    "source": {
      "lat": 40.797195,
      "lon": 29.436931,
      "location": "Gebze, TURKEY"
    },
    "destination": {
      "lat": 53.074981,
      "lon": 8.807081,
      "location": "Bremen, GERMANY"
    },
    "weight": 1
  },
  {
    "source": {
      "lat": 40.797195,
      "lon": 29.436931,
      "location": "Gebze, TURKEY"
    },
    "destination": {
      "lat": 40.797195,
      "lon": 29.436931,
      "location": "Gebze, TURKEY"
    },
    "weight": 1
  },
  {
    "source": {
      "lat": 51.1778861,
      "lon": 4.8357935,
      "location": "Herentals, BELGIUM"
    },
    "destination": {
      "lat": -26.201452,
      "lon": 28.045488,
      "location": "Johannesburg, SOUTH AFRICA"
    },
    "weight": 1
  },
  {
    "source": {
      "lat": 40.205771,
      "lon": -74.67087,
      "location": "NJ, UNITED STATES"
    },
    "destination": {
      "lat": 51.0487909,
      "lon": 16.9655796,
      "location": "Bielany Wroclawskie, Kobierzyce, POLAND"
    },
    "weight": 1
  },
  {
    "source": {
      "lat": 51.1105483,
      "lon": 17.0255582,
      "location": "Wroclaw, Poland, POLAND"
    },
    "destination": {
      "lat": 43.6518927,
      "lon": -79.381713,
      "location": "Toronto, CANADA"
    },
    "weight": 1
  },
  {
    "source": {
      "lat": 53.074981,
      "lon": 8.807081,
      "location": "Bremen, GERMANY"
    },
    "destination": {
      "lat": 47.4225206,
      "lon": 8.56099,
      "location": "Glattpark, SWITZERLAND"
    },
    "weight": 2
  },
  {
    "source": {
      "lat": 19.4326773,
      "lon": -99.1342112,
      "location": "Mexico, MEXICO"
    },
    "destination": {
      "lat": -26.201452,
      "lon": 28.045488,
      "location": "Johannesburg, SOUTH AFRICA"
    },
    "weight": 1
  },
  {
    "source": {
      "lat": 52.2262757,
      "lon": -2.7387275,
      "location": "Leominster, UNITED KINGDOM"
    },
    "destination": {
      "lat": -26.201452,
      "lon": 28.045488,
      "location": "Johannesburg, SOUTH AFRICA"
    },
    "weight": 1
  },
  {
    "source": {
      "lat": 40.825873,
      "lon": -74.360771,
      "location": "East Hanover, UNITED STATES"
    },
    "destination": {
      "lat": -23.5486657,
      "lon": -46.6382522,
      "location": "Sao Paulo, BRAZIL"
    },
    "weight": 1
  },
  {
    "source": {
      "lat": 33.6375983,
      "lon": 116.9769588,
      "location": "Suzhou, CHINA"
    },
    "destination": {
      "lat": 43.6518927,
      "lon": -79.381713,
      "location": "Toronto, CANADA"
    },
    "weight": 1
  },
  {
    "source": {
      "lat": 52.4828994,
      "lon": -1.8934623,
      "location": "Birmingham, UNITED KINGDOM"
    },
    "destination": {
      "lat": 50.789124,
      "lon": -3.652245,
      "location": "Crediton, UNITED KINGDOM"
    },
    "weight": 1
  },
  {
    "source": {
      "lat": 9.9331345,
      "lon": -84.0797794,
      "location": "San Jose, COSTA RICA"
    },
    "destination": {
      "lat": 52.2349786,
      "lon": 21.0084924,
      "location": "Warszawa, POLAND"
    },
    "weight": 1
  },
  {
    "source": {
      "lat": 50.4538343,
      "lon": 4.0927318,
      "location": "LA Region - all Business Units, BRAZIL"
    },
    "destination": {
      "lat": -25.4283563,
      "lon": -49.2732515,
      "location": "Curitiba, BRAZIL"
    },
    "weight": 2
  },
  {
    "source": {
      "lat": 52.4828994,
      "lon": -1.8934623,
      "location": "Birmingham, UNITED KINGDOM"
    },
    "destination": {
      "lat": -23.5486657,
      "lon": -46.6382522,
      "location": "Sao Paulo, BRAZIL"
    },
    "weight": 6
  },
  {
    "source": {
      "lat": 51.455041,
      "lon": -0.9690884,
      "location": "Reading, UNITED KINGDOM"
    },
    "destination": {
      "lat": -23.5486657,
      "lon": -46.6382522,
      "location": "Sao Paulo, BRAZIL"
    },
    "weight": 2
  },
  {
    "source": {
      "lat": 51.0487909,
      "lon": 16.9655796,
      "location": "Bielany Wroclawskie, Kobierzyce, POLAND"
    },
    "destination": {
      "lat": -23.5486657,
      "lon": -46.6382522,
      "location": "Sao Paulo, BRAZIL"
    },
    "weight": 1
  },
  {
    "source": {
      "lat": 48.060101,
      "lon": 11.622189,
      "location": "Unterhaching, GERMANY"
    },
    "destination": {
      "lat": -25.4283563,
      "lon": -49.2732515,
      "location": "Curitiba, BRAZIL"
    },
    "weight": 1
  },
  {
    "source": {
      "lat": 49.9767389,
      "lon": 17.8620139,
      "location": "Opava - Vavrovice, CZECH REPUBLIC"
    },
    "destination": {
      "lat": -25.4283563,
      "lon": -49.2732515,
      "location": "Curitiba, BRAZIL"
    },
    "weight": 2
  },
  {
    "source": {
      "lat": 50.5146294,
      "lon": 14.0512943,
      "location": "Lovosice, CZECH REPUBLIC"
    },
    "destination": {
      "lat": -25.4283563,
      "lon": -49.2732515,
      "location": "Curitiba, BRAZIL"
    },
    "weight": 1
  },
  {
    "source": {
      "lat": 40.205771,
      "lon": -74.67087,
      "location": "NJ, UNITED STATES"
    },
    "destination": {
      "lat": -25.4283563,
      "lon": -49.2732515,
      "location": "Curitiba, BRAZIL"
    },
    "weight": 1
  },
  {
    "source": {
      "lat": 48.7308001,
      "lon": 2.1742453,
      "location": "Saclay, FRANCE"
    },
    "destination": {
      "lat": 19.1997061,
      "lon": 72.9646011,
      "location": "Thane, INDIA"
    },
    "weight": 4
  },
  {
    "source": {
      "lat": 48.7308001,
      "lon": 2.1742453,
      "location": "Saclay, FRANCE"
    },
    "destination": {
      "lat": -25.4283563,
      "lon": -49.2732515,
      "location": "Curitiba, BRAZIL"
    },
    "weight": 7
  },
  {
    "source": {
      "lat": 47.4225206,
      "lon": 8.56099,
      "location": "Glattpark, SWITZERLAND"
    },
    "destination": {
      "lat": -25.4283563,
      "lon": -49.2732515,
      "location": "Curitiba, BRAZIL"
    },
    "weight": 1
  },
  {
    "source": {
      "lat": 49.9767389,
      "lon": 17.8620139,
      "location": "Opava - Vavrovice, CZECH REPUBLIC"
    },
    "destination": {
      "lat": 41.883229,
      "lon": -87.632398,
      "location": "Chicago, UNITED STATES"
    },
    "weight": 1
  },
  {
    "source": {
      "lat": 48.1464009,
      "lon": 17.1068781,
      "location": "Bratislava, SLOVAKIA"
    },
    "destination": {
      "lat": -25.4283563,
      "lon": -49.2732515,
      "location": "Curitiba, BRAZIL"
    },
    "weight": 1
  },
  {
    "source": {
      "lat": 33.6375983,
      "lon": 116.9769588,
      "location": "Suzhou, CHINA"
    },
    "destination": {
      "lat": -26.201452,
      "lon": 28.045488,
      "location": "Johannesburg, SOUTH AFRICA"
    },
    "weight": 1
  },
  {
    "source": {
      "lat": 19.1997061,
      "lon": 72.9646011,
      "location": "Thane, INDIA"
    },
    "destination": {
      "lat": -25.4283563,
      "lon": -49.2732515,
      "location": "Curitiba, BRAZIL"
    },
    "weight": 3
  },
  {
    "source": {
      "lat": 52.4828994,
      "lon": -1.8934623,
      "location": "Birmingham, UNITED KINGDOM"
    },
    "destination": {
      "lat": 30.291201,
      "lon": 31.7406198,
      "location": "10th of Ramadan, EGYPT"
    },
    "weight": 1
  },